[
  {
    "Name": "Абланица",
    "RegionCode": "Благоевград",
    "Longitude": 23.934076,
    "Latitude": 41.53778
  },
  {
    "Name": "Абланица",
    "RegionCode": "Ловеч",
    "Longitude": 24.694069,
    "Latitude": 43.04016
  },
  {
    "Name": "Абланица",
    "RegionCode": "Пазарджик",
    "Longitude": 23.857357,
    "Latitude": 42.010193
  },
  {
    "Name": "Абрит",
    "RegionCode": "Добрич",
    "Longitude": 27.795773,
    "Latitude": 43.907677
  },
  {
    "Name": "Аврамово",
    "RegionCode": "Благоевград",
    "Longitude": 23.666668,
    "Latitude": 42.033333
  },
  {
    "Name": "Аврамово",
    "RegionCode": "Кърджали",
    "Longitude": 25.168343,
    "Latitude": 41.69818
  },
  {
    "Name": "Аврен",
    "RegionCode": "Варна",
    "Longitude": 27.667168,
    "Latitude": 43.11267
  },
  {
    "Name": "Аврен",
    "RegionCode": "Кърджали",
    "Longitude": 25.708961,
    "Latitude": 41.34551
  },
  {
    "Name": "Агатово",
    "RegionCode": "Габрово",
    "Longitude": 24.996405,
    "Latitude": 43.135544
  },
  {
    "Name": "Азманите",
    "RegionCode": "Габрово",
    "Longitude": 25.467402,
    "Latitude": 42.84025
  },
  {
    "Name": "Айдемир",
    "RegionCode": "Силистра",
    "Longitude": 27.167177,
    "Latitude": 44.09847
  },
  {
    "Name": "Айрово",
    "RegionCode": "Кърджали",
    "Longitude": 25.366644,
    "Latitude": 41.610237
  },
  {
    "Name": "Айтос",
    "RegionCode": "Бургас",
    "Longitude": 27.250645,
    "Latitude": 42.703117
  },
  {
    "Name": "Аканджиево",
    "RegionCode": "Пазарджик",
    "Longitude": 24.045578,
    "Latitude": 42.248856
  },
  {
    "Name": "Акациево",
    "RegionCode": "Видин",
    "Longitude": 22.807158,
    "Latitude": 44.015842
  },
  {
    "Name": "Аксаково",
    "RegionCode": "Варна",
    "Longitude": 27.817377,
    "Latitude": 43.259037
  },
  {
    "Name": "Аламовци",
    "RegionCode": "Сливен",
    "Longitude": null,
    "Latitude": null
  },
  {
    "Name": "Албанци",
    "RegionCode": "Кърджали",
    "Longitude": 25.271383,
    "Latitude": 41.494984
  },
  {
    "Name": "Алваново",
    "RegionCode": "Търговище",
    "Longitude": 26.672905,
    "Latitude": 43.294495
  },
  {
    "Name": "Алдомировци",
    "RegionCode": "София",
    "Longitude": 22.985607,
    "Latitude": 42.848015
  },
  {
    "Name": "Алеко Константиново",
    "RegionCode": "Пазарджик",
    "Longitude": 24.288809,
    "Latitude": 42.145123
  },
  {
    "Name": "Алеково",
    "RegionCode": "Велико Търново",
    "Longitude": 25.420126,
    "Latitude": 43.465843
  },
  {
    "Name": "Алеково",
    "RegionCode": "Силистра",
    "Longitude": 27.343334,
    "Latitude": 43.84552
  },
  {
    "Name": "Александрия",
    "RegionCode": "Добрич",
    "Longitude": 27.751177,
    "Latitude": 43.88577
  },
  {
    "Name": "Александрово",
    "RegionCode": "Бургас",
    "Longitude": 27.597181,
    "Latitude": 42.69515
  },
  {
    "Name": "Александрово",
    "RegionCode": "Велико Търново",
    "Longitude": 25.400602,
    "Latitude": 43.449738
  },
  {
    "Name": "Александрово",
    "RegionCode": "Ловеч",
    "Longitude": 24.940683,
    "Latitude": 43.263283
  },
  {
    "Name": "Александрово",
    "RegionCode": "Стара Загора",
    "Longitude": 25.091873,
    "Latitude": 42.59441
  },
  {
    "Name": "Александрово",
    "RegionCode": "Търговище",
    "Longitude": 26.422462,
    "Latitude": 43.231792
  },
  {
    "Name": "Александрово",
    "RegionCode": "Хасково",
    "Longitude": 25.726767,
    "Latitude": 41.982346
  },
  {
    "Name": "Александрово",
    "RegionCode": "Шумен",
    "Longitude": 26.972784,
    "Latitude": 42.989807
  },
  {
    "Name": "Александрово",
    "RegionCode": "Ямбол",
    "Longitude": 26.886389,
    "Latitude": 42.322117
  },
  {
    "Name": "Александър Стамболийски",
    "RegionCode": "Добрич",
    "Longitude": 28.358152,
    "Latitude": 43.68583
  },
  {
    "Name": "Алендарова",
    "RegionCode": "Пазарджик",
    "Longitude": 23.881989,
    "Latitude": 42.020153
  },
  {
    "Name": "Алиговска",
    "RegionCode": "Сливен",
    "Longitude": null,
    "Latitude": null
  },
  {
    "Name": "Алино",
    "RegionCode": "София",
    "Longitude": 23.383274,
    "Latitude": 42.401802
  },
  {
    "Name": "Алтимир",
    "RegionCode": "VRC",
    "Longitude": 23.800114,
    "Latitude": 43.532932
  },
  {
    "Name": "Алфатар",
    "RegionCode": "Силистра",
    "Longitude": 27.286575,
    "Latitude": 43.94585
  },
  {
    "Name": "Алцек",
    "RegionCode": "Добрич",
    "Longitude": 27.542784,
    "Latitude": 43.77515
  },
  {
    "Name": "Ангел войвода",
    "RegionCode": "Хасково",
    "Longitude": 25.285711,
    "Latitude": 41.82874
  },
  {
    "Name": "Ангеларий",
    "RegionCode": "Добрич",
    "Longitude": 27.526007,
    "Latitude": 43.829224
  },
  {
    "Name": "Ангелов",
    "RegionCode": "Габрово",
    "Longitude": 25.367002,
    "Latitude": 42.92379
  },
  {
    "Name": "Анево",
    "RegionCode": "Пловдив",
    "Longitude": 24.728222,
    "Latitude": 42.654495
  },
  {
    "Name": "Антимово",
    "RegionCode": "Силистра",
    "Longitude": 26.691784,
    "Latitude": 43.984257
  },
  {
    "Name": "Антимово",
    "RegionCode": "Видин",
    "Longitude": 22.944418,
    "Latitude": 44.027584
  },
  {
    "Name": "Антон",
    "RegionCode": "София",
    "Longitude": 24.25952,
    "Latitude": 42.73529
  },
  {
    "Name": "Антоново",
    "RegionCode": "Търговище",
    "Longitude": 26.160604,
    "Latitude": 43.149235
  },
  {
    "Name": "Аплаци",
    "RegionCode": "Велико Търново",
    "Longitude": 25.818136,
    "Latitude": 42.863613
  },
  {
    "Name": "Априлово",
    "RegionCode": "София",
    "Longitude": 23.68402,
    "Latitude": 42.669014
  },
  {
    "Name": "Априлово",
    "RegionCode": "Стара Загора",
    "Longitude": 25.856733,
    "Latitude": 42.194252
  },
  {
    "Name": "Априлово",
    "RegionCode": "Търговище",
    "Longitude": 26.278708,
    "Latitude": 43.26065
  },
  {
    "Name": "Априлци",
    "RegionCode": "Пазарджик",
    "Longitude": 24.291462,
    "Latitude": 42.31247
  },
  {
    "Name": "Априлци",
    "RegionCode": "Кърджали",
    "Longitude": 25.371508,
    "Latitude": 41.318302
  },
  {
    "Name": "Априлци",
    "RegionCode": "Ловеч",
    "Longitude": 24.916668,
    "Latitude": 42.833332
  },
  {
    "Name": "Арбанаси",
    "RegionCode": "Велико Търново",
    "Longitude": 25.669199,
    "Latitude": 43.098053
  },
  {
    "Name": "Арда",
    "RegionCode": "Сливен",
    "Longitude": 26.322868,
    "Latitude": 42.681652
  },
  {
    "Name": "Ардино",
    "RegionCode": "Кърджали",
    "Longitude": 25.133682,
    "Latitude": 41.58339
  },
  {
    "Name": "Арзан",
    "RegionCode": "Перник",
    "Longitude": 22.91997,
    "Latitude": 42.765873
  },
  {
    "Name": "Арковна",
    "RegionCode": "Варна",
    "Longitude": 27.199503,
    "Latitude": 43.03668
  },
  {
    "Name": "Армените",
    "RegionCode": "Габрово",
    "Longitude": 25.225237,
    "Latitude": 42.929527
  },
  {
    "Name": "Армянковци",
    "RegionCode": "Габрово",
    "Longitude": 25.571684,
    "Latitude": 42.870956
  },
  {
    "Name": "Арнаутито",
    "RegionCode": "Стара Загора",
    "Longitude": 25.54052,
    "Latitude": 42.303654
  },
  {
    "Name": "Арпаджик",
    "RegionCode": "Сливен",
    "Longitude": null,
    "Latitude": null
  },
  {
    "Name": "Арчар",
    "RegionCode": "Видин",
    "Longitude": 22.919111,
    "Latitude": 43.81074
  },
  {
    "Name": "Асен",
    "RegionCode": "Стара Загора",
    "Longitude": 25.201355,
    "Latitude": 42.651478
  },
  {
    "Name": "Асеновград",
    "RegionCode": "Пловдив",
    "Longitude": 24.878439,
    "Latitude": 42.01337
  },
  {
    "Name": "Асеновец",
    "RegionCode": "Сливен",
    "Longitude": 25.951777,
    "Latitude": 42.527843
  },
  {
    "Name": "Асеново",
    "RegionCode": "Велико Търново",
    "Longitude": 26.023373,
    "Latitude": 43.278366
  },
  {
    "Name": "Асеново",
    "RegionCode": "Плевен",
    "Longitude": 24.866068,
    "Latitude": 43.555172
  },
  {
    "Name": "Асеново",
    "RegionCode": "Ямбол",
    "Longitude": 26.658785,
    "Latitude": 42.367077
  },
  {
    "Name": "Асеновци",
    "RegionCode": "Плевен",
    "Longitude": 25.098408,
    "Latitude": 43.32664
  },
  {
    "Name": "Аспарухово",
    "RegionCode": "Бургас",
    "Longitude": 27.110765,
    "Latitude": 42.517185
  },
  {
    "Name": "Аспарухово",
    "RegionCode": "Варна",
    "Longitude": 27.888754,
    "Latitude": 43.17953
  },
  {
    "Name": "Аспарухово",
    "RegionCode": "Монтана",
    "Longitude": 23.212936,
    "Latitude": 43.70374
  },
  {
    "Name": "Аспарухово",
    "RegionCode": "Плевен",
    "Longitude": 25.12427,
    "Latitude": 43.395504
  },
  {
    "Name": "Атия",
    "RegionCode": "Бургас",
    "Longitude": 27.581766,
    "Latitude": 42.439095
  },
  {
    "Name": "Атолово",
    "RegionCode": "Ямбол",
    "Longitude": 26.732456,
    "Latitude": 42.59807
  },
  {
    "Name": "Ауста",
    "RegionCode": "Кърджали",
    "Longitude": 25.5014,
    "Latitude": 41.47834
  },
  {
    "Name": "Ахелой",
    "RegionCode": "Бургас",
    "Longitude": 27.649385,
    "Latitude": 42.646015
  },
  {
    "Name": "Ахматово",
    "RegionCode": "Пловдив",
    "Longitude": 25.051376,
    "Latitude": 42.110706
  },
  {
    "Name": "Ахрянско",
    "RegionCode": "Кърджали",
    "Longitude": 25.108225,
    "Latitude": 41.599274
  },
  {
    "Name": "Ахтопол",
    "RegionCode": "Бургас",
    "Longitude": 27.940714,
    "Latitude": 42.099384
  },
  {
    "Name": "Баба Тонка",
    "RegionCode": "Търговище",
    "Longitude": 26.16733,
    "Latitude": 43.248013
  },
  {
    "Name": "Бабек",
    "RegionCode": "Пловдив",
    "Longitude": 25.07444,
    "Latitude": 42.442326
  },
  {
    "Name": "Бабино",
    "RegionCode": "Кюстендил",
    "Longitude": 22.964685,
    "Latitude": 42.363
  },
  {
    "Name": "Бабинска река",
    "RegionCode": "Кюстендил",
    "Longitude": 22.994473,
    "Latitude": 42.33158
  },
  {
    "Name": "Бабинци",
    "RegionCode": "Ловеч",
    "Longitude": 24.267324,
    "Latitude": 42.950058
  },
  {
    "Name": "Бабица",
    "RegionCode": "Перник",
    "Longitude": 22.954376,
    "Latitude": 42.735767
  },
  {
    "Name": "Баблон",
    "RegionCode": "Сливен",
    "Longitude": null,
    "Latitude": null
  },
  {
    "Name": "Бабово",
    "RegionCode": "Русе",
    "Longitude": 26.304127,
    "Latitude": 43.9789
  },
  {
    "Name": "Бабук",
    "RegionCode": "Силистра",
    "Longitude": 27.247152,
    "Latitude": 44.01185
  },
  {
    "Name": "Бабяк",
    "RegionCode": "Благоевград",
    "Longitude": 23.681528,
    "Latitude": 41.955208
  },
  {
    "Name": "Багалевци",
    "RegionCode": "Велико Търново",
    "Longitude": 25.812828,
    "Latitude": 42.89302
  },
  {
    "Name": "Багра",
    "RegionCode": "Кърджали",
    "Longitude": 25.321365,
    "Latitude": 41.700314
  },
  {
    "Name": "Багренци",
    "RegionCode": "Кюстендил",
    "Longitude": 22.760134,
    "Latitude": 42.2791
  },
  {
    "Name": "Багрилци",
    "RegionCode": "Кърджали",
    "Longitude": 25.786062,
    "Latitude": 41.47272
  },
  {
    "Name": "Багрянка",
    "RegionCode": "Кърджали",
    "Longitude": 25.423447,
    "Latitude": 41.509083
  },
  {
    "Name": "Бадевци",
    "RegionCode": "Велико Търново",
    "Longitude": 25.750652,
    "Latitude": 42.88384
  },
  {
    "Name": "Бадино",
    "RegionCode": "Кюстендил",
    "Longitude": 23.10782,
    "Latitude": 42.178394
  },
  {
    "Name": "Баевци",
    "RegionCode": "Велико Търново",
    "Longitude": 25.787252,
    "Latitude": 42.922688
  },
  {
    "Name": "Баевци",
    "RegionCode": "Габрово",
    "Longitude": 25.284624,
    "Latitude": 42.812405
  },
  {
    "Name": "Баждари",
    "RegionCode": "Велико Търново",
    "Longitude": 25.773476,
    "Latitude": 42.841995
  },
  {
    "Name": "Байкал",
    "RegionCode": "Плевен",
    "Longitude": 24.427092,
    "Latitude": 43.708702
  },
  {
    "Name": "Байкалско",
    "RegionCode": "Перник",
    "Longitude": 22.823933,
    "Latitude": 42.405872
  },
  {
    "Name": "Байково",
    "RegionCode": "Шумен",
    "Longitude": 26.837574,
    "Latitude": 43.460163
  },
  {
    "Name": "Байлово",
    "RegionCode": "София",
    "Longitude": 23.82062,
    "Latitude": 42.657185
  },
  {
    "Name": "Бакалите",
    "RegionCode": "Кърджали",
    "Longitude": 25.230038,
    "Latitude": 41.740505
  },
  {
    "Name": "Бакьово",
    "RegionCode": "София",
    "Longitude": 23.46521,
    "Latitude": 42.87772
  },
  {
    "Name": "Балабаново",
    "RegionCode": "Кърджали",
    "Longitude": 25.380915,
    "Latitude": 41.570602
  },
  {
    "Name": "Балабанско",
    "RegionCode": "Ловеч",
    "Longitude": 24.650303,
    "Latitude": 42.89398
  },
  {
    "Name": "Балалея",
    "RegionCode": "Габрово",
    "Longitude": 25.431131,
    "Latitude": 42.993446
  },
  {
    "Name": "Баланите",
    "RegionCode": "Габрово",
    "Longitude": 25.370472,
    "Latitude": 42.83192
  },
  {
    "Name": "Баланово",
    "RegionCode": "Кюстендил",
    "Longitude": 23.05929,
    "Latitude": 42.250946
  },
  {
    "Name": "Балван",
    "RegionCode": "Велико Търново",
    "Longitude": 25.413279,
    "Latitude": 43.085293
  },
  {
    "Name": "Балванците",
    "RegionCode": "Габрово",
    "Longitude": 25.449791,
    "Latitude": 43.018627
  },
  {
    "Name": "Балдево",
    "RegionCode": "Благоевград",
    "Longitude": 23.769474,
    "Latitude": 41.628723
  },
  {
    "Name": "Балей",
    "RegionCode": "Видин",
    "Longitude": 22.648207,
    "Latitude": 44.18944
  },
  {
    "Name": "Балик",
    "RegionCode": "Добрич",
    "Longitude": 27.5844,
    "Latitude": 43.80068
  },
  {
    "Name": "Балиновци",
    "RegionCode": "Габрово",
    "Longitude": 25.380333,
    "Latitude": 42.9218
  },
  {
    "Name": "Балкан",
    "RegionCode": "Хасково",
    "Longitude": 25.572458,
    "Latitude": 41.76706
  },
  {
    "Name": "Балкан махала",
    "RegionCode": "Пловдив",
    "Longitude": 24.85682,
    "Latitude": 41.74582
  },
  {
    "Name": "Балканец",
    "RegionCode": "Ловеч",
    "Longitude": 24.666374,
    "Latitude": 42.851917
  },
  {
    "Name": "Балкански",
    "RegionCode": "Разград",
    "Longitude": 26.402056,
    "Latitude": 43.524014
  },
  {
    "Name": "Балканци",
    "RegionCode": "Велико Търново",
    "Longitude": 26.010902,
    "Latitude": 43.17574
  },
  {
    "Name": "Балканци",
    "RegionCode": "Добрич",
    "Longitude": 28.162527,
    "Latitude": 43.598526
  },
  {
    "Name": "Балуци",
    "RegionCode": "Велико Търново",
    "Longitude": 25.8244,
    "Latitude": 42.950874
  },
  {
    "Name": "Балчик",
    "RegionCode": "Добрич",
    "Longitude": 28.161718,
    "Latitude": 43.426907
  },
  {
    "Name": "Балша",
    "RegionCode": "София (столица)",
    "Longitude": 23.266483,
    "Latitude": 42.84836
  },
  {
    "Name": "Бальовци",
    "RegionCode": "София",
    "Longitude": 23.679468,
    "Latitude": 42.571064
  },
  {
    "Name": "Балювица",
    "RegionCode": "Монтана",
    "Longitude": 23.20117,
    "Latitude": 43.298965
  },
  {
    "Name": "Банари",
    "RegionCode": "Габрово",
    "Longitude": 25.513988,
    "Latitude": 42.938812
  },
  {
    "Name": "Бангейци",
    "RegionCode": "Габрово",
    "Longitude": 25.452826,
    "Latitude": 42.849426
  },
  {
    "Name": "Баниска",
    "RegionCode": "Русе",
    "Longitude": 25.90304,
    "Latitude": 43.457886
  },
  {
    "Name": "Баните",
    "RegionCode": "Сливен",
    "Longitude": 26.232693,
    "Latitude": 42.609947
  },
  {
    "Name": "Баница",
    "RegionCode": "VRC",
    "Longitude": 23.692434,
    "Latitude": 43.34343
  },
  {
    "Name": "Баничан",
    "RegionCode": "Благоевград",
    "Longitude": 23.737455,
    "Latitude": 41.620697
  },
  {
    "Name": "Банище",
    "RegionCode": "Перник",
    "Longitude": 22.730122,
    "Latitude": 42.71763
  },
  {
    "Name": "Банковец",
    "RegionCode": "Търговище",
    "Longitude": 26.160503,
    "Latitude": 43.0766
  },
  {
    "Name": "Банковци",
    "RegionCode": "Габрово",
    "Longitude": 25.321306,
    "Latitude": 42.93039
  },
  {
    "Name": "Банкя",
    "RegionCode": "Перник",
    "Longitude": 22.679878,
    "Latitude": 42.861935
  },
  {
    "Name": "Банкя",
    "RegionCode": "София (столица)",
    "Longitude": 23.146967,
    "Latitude": 42.7074
  },
  {
    "Name": "Баново",
    "RegionCode": "Варна",
    "Longitude": 27.677559,
    "Latitude": 43.264496
  },
  {
    "Name": "Банско",
    "RegionCode": "Благоевград",
    "Longitude": 23.485653,
    "Latitude": 41.840424
  },
  {
    "Name": "Банчовци",
    "RegionCode": "София",
    "Longitude": 23.696213,
    "Latitude": 42.522434
  },
  {
    "Name": "Баня",
    "RegionCode": "Благоевград",
    "Longitude": 23.522156,
    "Latitude": 41.88044
  },
  {
    "Name": "Баня",
    "RegionCode": "Бургас",
    "Longitude": 27.818165,
    "Latitude": 42.775517
  },
  {
    "Name": "Баня",
    "RegionCode": "Пазарджик",
    "Longitude": 24.142515,
    "Latitude": 42.463875
  },
  {
    "Name": "Баня",
    "RegionCode": "Пловдив",
    "Longitude": 24.831846,
    "Latitude": 42.553463
  },
  {
    "Name": "Баня",
    "RegionCode": "Сливен",
    "Longitude": 25.99102,
    "Latitude": 42.606236
  },
  {
    "Name": "Бараково",
    "RegionCode": "Кюстендил",
    "Longitude": 23.060045,
    "Latitude": 42.062904
  },
  {
    "Name": "Бараци",
    "RegionCode": "Кърджали",
    "Longitude": 25.645918,
    "Latitude": 41.521645
  },
  {
    "Name": "Барутин",
    "RegionCode": "Сливен",
    "Longitude": null,
    "Latitude": null
  },
  {
    "Name": "Басарбово",
    "RegionCode": "Русе",
    "Longitude": 25.950943,
    "Latitude": 43.776768
  },
  {
    "Name": "Баскалци",
    "RegionCode": "Благоевград",
    "Longitude": 23.006783,
    "Latitude": 41.47488
  },
  {
    "Name": "Бата",
    "RegionCode": "Бургас",
    "Longitude": 27.495998,
    "Latitude": 42.73805
  },
  {
    "Name": "Батак",
    "RegionCode": "Велико Търново",
    "Longitude": 25.33731,
    "Latitude": 43.34695
  },
  {
    "Name": "Батак",
    "RegionCode": "Пазарджик",
    "Longitude": 24.21897,
    "Latitude": 41.944176
  },
  {
    "Name": "Батановци",
    "RegionCode": "Перник",
    "Longitude": 22.955103,
    "Latitude": 42.602028
  },
  {
    "Name": "Батин",
    "RegionCode": "Русе",
    "Longitude": 25.679546,
    "Latitude": 43.655853
  },
  {
    "Name": "Батишница",
    "RegionCode": "Русе",
    "Longitude": 25.869864,
    "Latitude": 43.533577
  },
  {
    "Name": "Батово",
    "RegionCode": "Добрич",
    "Longitude": 27.963028,
    "Latitude": 43.41111
  },
  {
    "Name": "Батошево",
    "RegionCode": "Габрово",
    "Longitude": 25.0847,
    "Latitude": 42.90938
  },
  {
    "Name": "Батулия",
    "RegionCode": "София",
    "Longitude": 23.423916,
    "Latitude": 42.896603
  },
  {
    "Name": "Батулци",
    "RegionCode": "Ловеч",
    "Longitude": 24.004879,
    "Latitude": 43.087223
  },
  {
    "Name": "Баурене",
    "RegionCode": "VRC",
    "Longitude": 23.487045,
    "Latitude": 43.44257
  },
  {
    "Name": "Бахалин",
    "RegionCode": "София",
    "Longitude": 22.914593,
    "Latitude": 42.88522
  },
  {
    "Name": "Баховица",
    "RegionCode": "Ловеч",
    "Longitude": 24.683043,
    "Latitude": 43.18835
  },
  {
    "Name": "Бахреци",
    "RegionCode": "Габрово",
    "Longitude": 25.53449,
    "Latitude": 42.82909
  },
  {
    "Name": "Бацова махала",
    "RegionCode": "Плевен",
    "Longitude": 24.99039,
    "Latitude": 43.504395
  },
  {
    "Name": "Бачево",
    "RegionCode": "Благоевград",
    "Longitude": 23.453045,
    "Latitude": 41.920216
  },
  {
    "Name": "Бачково",
    "RegionCode": "Пловдив",
    "Longitude": 24.859491,
    "Latitude": 41.951538
  },
  {
    "Name": "Башево",
    "RegionCode": "Кърджали",
    "Longitude": 25.151754,
    "Latitude": 41.661884
  },
  {
    "Name": "Бащино",
    "RegionCode": "Кърджали",
    "Longitude": 25.56308,
    "Latitude": 41.718586
  },
  {
    "Name": "Бащино",
    "RegionCode": "Силистра",
    "Longitude": 26.928757,
    "Latitude": 43.94963
  },
  {
    "Name": "Бащино",
    "RegionCode": "Стара Загора",
    "Longitude": 25.73992,
    "Latitude": 42.10176
  },
  {
    "Name": "Баячево",
    "RegionCode": "Търговище",
    "Longitude": 26.653618,
    "Latitude": 43.22117
  },
  {
    "Name": "Бдинци",
    "RegionCode": "Добрич",
    "Longitude": 27.521172,
    "Latitude": 43.522835
  },
  {
    "Name": "Беброво",
    "RegionCode": "Велико Търново",
    "Longitude": 26.011452,
    "Latitude": 42.949486
  },
  {
    "Name": "Беглеж",
    "RegionCode": "Плевен",
    "Longitude": 24.481386,
    "Latitude": 43.248466
  },
  {
    "Name": "Бегово",
    "RegionCode": "Пловдив",
    "Longitude": 24.827433,
    "Latitude": 42.410957
  },
  {
    "Name": "Бегуновци",
    "RegionCode": "Перник",
    "Longitude": 22.831804,
    "Latitude": 42.69184
  },
  {
    "Name": "Бегунци",
    "RegionCode": "Пловдив",
    "Longitude": 24.882254,
    "Latitude": 42.548374
  },
  {
    "Name": "Беден",
    "RegionCode": "Сливен",
    "Longitude": 26.322868,
    "Latitude": 42.681652
  },
  {
    "Name": "Беджене",
    "RegionCode": "Шумен",
    "Longitude": 27.267437,
    "Latitude": 43.45041
  },
  {
    "Name": "Бежаново",
    "RegionCode": "Ловеч",
    "Longitude": 24.666668,
    "Latitude": 43.233
  },
  {
    "Name": "Бежаново",
    "RegionCode": "Добрич",
    "Longitude": 28.391932,
    "Latitude": 43.711662
  },
  {
    "Name": "Безводица",
    "RegionCode": "Добрич",
    "Longitude": 27.97299,
    "Latitude": 43.521908
  },
  {
    "Name": "Безводно",
    "RegionCode": "Кърджали",
    "Longitude": 25.10236,
    "Latitude": 41.750645
  },
  {
    "Name": "Безден",
    "RegionCode": "София",
    "Longitude": 23.111841,
    "Latitude": 42.880943
  },
  {
    "Name": "Безденица",
    "RegionCode": "Монтана",
    "Longitude": 23.195082,
    "Latitude": 43.548073
  },
  {
    "Name": "Безмер",
    "RegionCode": "Добрич",
    "Longitude": 27.41459,
    "Latitude": 43.79818
  },
  {
    "Name": "Безмер",
    "RegionCode": "Ямбол",
    "Longitude": 26.39318,
    "Latitude": 42.47632
  },
  {
    "Name": "Бейковци",
    "RegionCode": "Велико Търново",
    "Longitude": 25.848352,
    "Latitude": 42.864964
  },
  {
    "Name": "Бекриите",
    "RegionCode": "Габрово",
    "Longitude": 25.298986,
    "Latitude": 42.934883
  },
  {
    "Name": "Бел камен",
    "RegionCode": "Благоевград",
    "Longitude": 23.733334,
    "Latitude": 41.65
  },
  {
    "Name": "Бела",
    "RegionCode": "Видин",
    "Longitude": 22.710037,
    "Latitude": 43.70927
  },
  {
    "Name": "Бела Рада",
    "RegionCode": "Видин",
    "Longitude": 22.758125,
    "Latitude": 43.976273
  },
  {
    "Name": "Беланица",
    "RegionCode": "Перник",
    "Longitude": 22.938019,
    "Latitude": 42.48327
  },
  {
    "Name": "Беласица",
    "RegionCode": "Благоевград",
    "Longitude": 23.13455,
    "Latitude": 41.366234
  },
  {
    "Name": "Белащица",
    "RegionCode": "Пловдив",
    "Longitude": 24.747984,
    "Latitude": 42.06758
  },
  {
    "Name": "Белгун",
    "RegionCode": "Добрич",
    "Longitude": 28.319729,
    "Latitude": 43.601578
  },
  {
    "Name": "Белев дол",
    "RegionCode": "Сливен",
    "Longitude": null,
    "Latitude": null
  },
  {
    "Name": "Белевехчево",
    "RegionCode": "Благоевград",
    "Longitude": 23.308964,
    "Latitude": 41.56602
  },
  {
    "Name": "Белеврен",
    "RegionCode": "Бургас",
    "Longitude": 27.176882,
    "Latitude": 42.092266
  },
  {
    "Name": "Белене",
    "RegionCode": "Плевен",
    "Longitude": 25.124636,
    "Latitude": 43.64451
  },
  {
    "Name": "Беленци",
    "RegionCode": "Ловеч",
    "Longitude": 24.06297,
    "Latitude": 43.120487
  },
  {
    "Name": "Бели брег",
    "RegionCode": "Монтана",
    "Longitude": 23.437174,
    "Latitude": 43.51062
  },
  {
    "Name": "Бели брод",
    "RegionCode": "Монтана",
    "Longitude": 23.572397,
    "Latitude": 43.53808
  },
  {
    "Name": "Бели бряг",
    "RegionCode": "Стара Загора",
    "Longitude": 25.940247,
    "Latitude": 42.237667
  },
  {
    "Name": "Бели вир",
    "RegionCode": "Кърджали",
    "Longitude": 25.31919,
    "Latitude": 41.734615
  },
  {
    "Name": "Бели дол",
    "RegionCode": "Хасково",
    "Longitude": 25.955812,
    "Latitude": 41.409565
  },
  {
    "Name": "Бели извор",
    "RegionCode": "VRC",
    "Longitude": 23.461546,
    "Latitude": 43.276524
  },
  {
    "Name": "Бели Искър",
    "RegionCode": "София",
    "Longitude": 23.538002,
    "Latitude": 42.275063
  },
  {
    "Name": "Бели Лом",
    "RegionCode": "Разград",
    "Longitude": 26.514893,
    "Latitude": 43.528885
  },
  {
    "Name": "Бели Осъм",
    "RegionCode": "Ловеч",
    "Longitude": 24.659264,
    "Latitude": 42.861294
  },
  {
    "Name": "Бели пласт",
    "RegionCode": "Кърджали",
    "Longitude": 25.428844,
    "Latitude": 41.77576
  },
  {
    "Name": "Белила",
    "RegionCode": "Бургас",
    "Longitude": 27.104263,
    "Latitude": 42.33112
  },
  {
    "Name": "Белимел",
    "RegionCode": "Монтана",
    "Longitude": 22.974155,
    "Latitude": 43.43336
  },
  {
    "Name": "Белинци",
    "RegionCode": "Разград",
    "Longitude": 26.958164,
    "Latitude": 43.650177
  },
  {
    "Name": "Белица",
    "RegionCode": "Благоевград",
    "Longitude": 23.559221,
    "Latitude": 41.950775
  },
  {
    "Name": "Белица",
    "RegionCode": "Габрово",
    "Longitude": 25.580128,
    "Latitude": 42.85213
  },
  {
    "Name": "Белица",
    "RegionCode": "Силистра",
    "Longitude": 26.664774,
    "Latitude": 43.93182
  },
  {
    "Name": "Белица",
    "RegionCode": "Пловдив",
    "Longitude": 24.897375,
    "Latitude": 41.826126
  },
  {
    "Name": "Белица",
    "RegionCode": "Хасково",
    "Longitude": 26.00815,
    "Latitude": 41.827477
  },
  {
    "Name": "Белица",
    "RegionCode": "София",
    "Longitude": 23.883333,
    "Latitude": 42.55
  },
  {
    "Name": "Белиш",
    "RegionCode": "Ловеч",
    "Longitude": 24.742575,
    "Latitude": 42.936607
  },
  {
    "Name": "Бело поле",
    "RegionCode": "Благоевград",
    "Longitude": 23.047312,
    "Latitude": 42.03191
  },
  {
    "Name": "Бело поле",
    "RegionCode": "Видин",
    "Longitude": 22.903408,
    "Latitude": 43.652515
  },
  {
    "Name": "Беловец",
    "RegionCode": "Разград",
    "Longitude": 26.39025,
    "Latitude": 43.81388
  },
  {
    "Name": "Беловица",
    "RegionCode": "Пловдив",
    "Longitude": 24.533781,
    "Latitude": 42.426155
  },
  {
    "Name": "Белово",
    "RegionCode": "Пазарджик",
    "Longitude": 24,
    "Latitude": 42.216667
  },
  {
    "Name": "Белоградец",
    "RegionCode": "Варна",
    "Longitude": 27.329247,
    "Latitude": 43.35225
  },
  {
    "Name": "Белоградчик",
    "RegionCode": "Видин",
    "Longitude": 22.682957,
    "Latitude": 43.627834
  },
  {
    "Name": "Белодол",
    "RegionCode": "Бургас",
    "Longitude": 27.452194,
    "Latitude": 42.721355
  },
  {
    "Name": "Белозем",
    "RegionCode": "Пловдив",
    "Longitude": 25.049328,
    "Latitude": 42.201862
  },
  {
    "Name": "Белокопитово",
    "RegionCode": "Шумен",
    "Longitude": 26.89961,
    "Latitude": 43.333717
  },
  {
    "Name": "Беломорци",
    "RegionCode": "Търговище",
    "Longitude": 26.434183,
    "Latitude": 43.137398
  },
  {
    "Name": "Беломъжите",
    "RegionCode": "Габрово",
    "Longitude": 25.407442,
    "Latitude": 42.92552
  },
  {
    "Name": "Белополци",
    "RegionCode": "Хасково",
    "Longitude": 25.80629,
    "Latitude": 41.522076
  },
  {
    "Name": "Белополяне",
    "RegionCode": "Хасково",
    "Longitude": 26.150742,
    "Latitude": 41.45832
  },
  {
    "Name": "Белопопци",
    "RegionCode": "София",
    "Longitude": 23.76806,
    "Latitude": 42.668762
  },
  {
    "Name": "Белослав",
    "RegionCode": "Варна",
    "Longitude": 27.704172,
    "Latitude": 43.187107
  },
  {
    "Name": "Белотинци",
    "RegionCode": "Монтана",
    "Longitude": 22.933918,
    "Latitude": 43.5491
  },
  {
    "Name": "Белцов",
    "RegionCode": "Русе",
    "Longitude": 25.637358,
    "Latitude": 43.567993
  },
  {
    "Name": "Белчевци",
    "RegionCode": "Велико Търново",
    "Longitude": 25.620506,
    "Latitude": 42.887424
  },
  {
    "Name": "Белчин",
    "RegionCode": "София",
    "Longitude": 23.38043,
    "Latitude": 42.3614
  },
  {
    "Name": "Белчински бани",
    "RegionCode": "София",
    "Longitude": 23.408396,
    "Latitude": 42.365654
  },
  {
    "Name": "Бельово",
    "RegionCode": "Благоевград",
    "Longitude": 23.550055,
    "Latitude": 41.480526
  },
  {
    "Name": "Беляковец",
    "RegionCode": "Велико Търново",
    "Longitude": 25.58181,
    "Latitude": 43.10517
  },
  {
    "Name": "Беляново",
    "RegionCode": "Русе",
    "Longitude": 25.617785,
    "Latitude": 43.61465
  },
  {
    "Name": "Бенковски",
    "RegionCode": "Варна",
    "Longitude": 27.784374,
    "Latitude": 43.117737
  },
  {
    "Name": "Бенковски",
    "RegionCode": "Кърджали",
    "Longitude": 25.25642,
    "Latitude": 41.3808
  },
  {
    "Name": "Бенковски",
    "RegionCode": "Пловдив",
    "Longitude": 24.649454,
    "Latitude": 42.20815
  },
  {
    "Name": "Бенковски",
    "RegionCode": "София",
    "Longitude": 23.346645,
    "Latitude": 42.739716
  },
  {
    "Name": "Бенковски",
    "RegionCode": "Стара Загора",
    "Longitude": 25.889376,
    "Latitude": 42.411083
  },
  {
    "Name": "Бенковски",
    "RegionCode": "Добрич",
    "Longitude": 27.478409,
    "Latitude": 43.598557
  },
  {
    "Name": "Берайнци",
    "RegionCode": "Перник",
    "Longitude": 22.593832,
    "Latitude": 42.807312
  },
  {
    "Name": "Беренде",
    "RegionCode": "Перник",
    "Longitude": 22.816559,
    "Latitude": 42.61837
  },
  {
    "Name": "Беренде",
    "RegionCode": "София",
    "Longitude": 22.937365,
    "Latitude": 42.990093
  },
  {
    "Name": "Беренде извор",
    "RegionCode": "София",
    "Longitude": 22.89969,
    "Latitude": 42.999935
  },
  {
    "Name": "Бериево",
    "RegionCode": "Габрово",
    "Longitude": 24.893139,
    "Latitude": 42.967793
  },
  {
    "Name": "Берковица",
    "RegionCode": "Монтана",
    "Longitude": 23.125109,
    "Latitude": 43.237045
  },
  {
    "Name": "Берковски",
    "RegionCode": "Търговище",
    "Longitude": 26.21319,
    "Latitude": 43.23941
  },
  {
    "Name": "Берковци",
    "RegionCode": "Велико Търново",
    "Longitude": 25.728237,
    "Latitude": 42.886726
  },
  {
    "Name": "Бероново",
    "RegionCode": "Бургас",
    "Longitude": 26.69948,
    "Latitude": 42.82829
  },
  {
    "Name": "Берсин",
    "RegionCode": "Кюстендил",
    "Longitude": 22.77195,
    "Latitude": 42.243267
  },
  {
    "Name": "Беслен",
    "RegionCode": "Благоевград",
    "Longitude": 23.965008,
    "Latitude": 41.47163
  },
  {
    "Name": "Беснурка",
    "RegionCode": "Кърджали",
    "Longitude": 25.236416,
    "Latitude": 41.758724
  },
  {
    "Name": "Биволаре",
    "RegionCode": "Плевен",
    "Longitude": 24.55924,
    "Latitude": 43.48529
  },
  {
    "Name": "Биволяне",
    "RegionCode": "Кърджали",
    "Longitude": 25.502499,
    "Latitude": 41.588985
  },
  {
    "Name": "Бижовци",
    "RegionCode": "Велико Търново",
    "Longitude": 25.653053,
    "Latitude": 42.825367
  },
  {
    "Name": "Бижовци",
    "RegionCode": "Габрово",
    "Longitude": 25.47669,
    "Latitude": 42.89243
  },
  {
    "Name": "Биково",
    "RegionCode": "Сливен",
    "Longitude": 26.19125,
    "Latitude": 42.476227
  },
  {
    "Name": "Билинци",
    "RegionCode": "Перник",
    "Longitude": 22.818323,
    "Latitude": 42.791775
  },
  {
    "Name": "Билка",
    "RegionCode": "Бургас",
    "Longitude": 27.232262,
    "Latitude": 42.93633
  },
  {
    "Name": "Билкини",
    "RegionCode": "Габрово",
    "Longitude": 25.549648,
    "Latitude": 42.9405
  },
  {
    "Name": "Било",
    "RegionCode": "Добрич",
    "Longitude": 28.402897,
    "Latitude": 43.647167
  },
  {
    "Name": "Билянска",
    "RegionCode": "Сливен",
    "Longitude": null,
    "Latitude": null
  },
  {
    "Name": "Бинкос",
    "RegionCode": "Сливен",
    "Longitude": 26.09704,
    "Latitude": 42.64857
  },
  {
    "Name": "Биркова",
    "RegionCode": "Пазарджик",
    "Longitude": 23.815168,
    "Latitude": 41.9849
  },
  {
    "Name": "Бисер",
    "RegionCode": "Хасково",
    "Longitude": 25.988247,
    "Latitude": 41.867165
  },
  {
    "Name": "Бисерци",
    "RegionCode": "Разград",
    "Longitude": 26.505241,
    "Latitude": 43.885418
  },
  {
    "Name": "Бистра",
    "RegionCode": "Силистра",
    "Longitude": 27.371737,
    "Latitude": 43.84079
  },
  {
    "Name": "Бистра",
    "RegionCode": "Търговище",
    "Longitude": 26.561401,
    "Latitude": 43.329823
  },
  {
    "Name": "Бистренци",
    "RegionCode": "Русе",
    "Longitude": 25.814804,
    "Latitude": 43.420265
  },
  {
    "Name": "Бистрец",
    "RegionCode": "Бургас",
    "Longitude": 27.015427,
    "Latitude": 42.313972
  },
  {
    "Name": "Бистрец",
    "RegionCode": "Добрич",
    "Longitude": 27.729942,
    "Latitude": 43.831486
  },
  {
    "Name": "Бистрилица",
    "RegionCode": "Монтана",
    "Longitude": 23.104208,
    "Latitude": 43.358486
  },
  {
    "Name": "Бистрица",
    "RegionCode": "Благоевград",
    "Longitude": 23.180134,
    "Latitude": 42.05477
  },
  {
    "Name": "Бистрица",
    "RegionCode": "Кюстендил",
    "Longitude": 23.163143,
    "Latitude": 42.23971
  },
  {
    "Name": "Бистрица",
    "RegionCode": "София (столица)",
    "Longitude": 23.359598,
    "Latitude": 42.5841
  },
  {
    "Name": "Бистроглед",
    "RegionCode": "Кърджали",
    "Longitude": 25.128994,
    "Latitude": 41.566776
  },
  {
    "Name": "Благово",
    "RegionCode": "Монтана",
    "Longitude": 23.22188,
    "Latitude": 43.3534
  },
  {
    "Name": "Благово",
    "RegionCode": "Шумен",
    "Longitude": 27.054697,
    "Latitude": 43.219437
  },
  {
    "Name": "Благоевград",
    "RegionCode": "Благоевград",
    "Longitude": 23.09434,
    "Latitude": 42.02086
  },
  {
    "Name": "Благоево",
    "RegionCode": "Велико Търново",
    "Longitude": 25.963186,
    "Latitude": 43.19468
  },
  {
    "Name": "Благоево",
    "RegionCode": "Разград",
    "Longitude": 26.398567,
    "Latitude": 43.453415
  },
  {
    "Name": "Благун",
    "RegionCode": "Кърджали",
    "Longitude": 25.741627,
    "Latitude": 41.377434
  },
  {
    "Name": "Блажиево",
    "RegionCode": "Кюстендил",
    "Longitude": 23.042912,
    "Latitude": 42.201427
  },
  {
    "Name": "Блатец",
    "RegionCode": "Кюстендил",
    "Longitude": 22.609438,
    "Latitude": 42.31838
  },
  {
    "Name": "Блатец",
    "RegionCode": "Сливен",
    "Longitude": 26.536499,
    "Latitude": 42.63225
  },
  {
    "Name": "Блатешница",
    "RegionCode": "Перник",
    "Longitude": 22.776876,
    "Latitude": 42.44841
  },
  {
    "Name": "Блатино",
    "RegionCode": "Кюстендил",
    "Longitude": 23.09832,
    "Latitude": 42.30124
  },
  {
    "Name": "Блатница",
    "RegionCode": "Пазарджик",
    "Longitude": 24.40265,
    "Latitude": 42.372723
  },
  {
    "Name": "Блато",
    "RegionCode": "Кюстендил",
    "Longitude": 22.938488,
    "Latitude": 42.23976
  },
  {
    "Name": "Блатска",
    "RegionCode": "Благоевград",
    "Longitude": 23.864689,
    "Latitude": 41.534203
  },
  {
    "Name": "Бленика",
    "RegionCode": "Кърджали",
    "Longitude": 25.319372,
    "Latitude": 41.67163
  },
  {
    "Name": "Близнак",
    "RegionCode": "Бургас",
    "Longitude": 27.305044,
    "Latitude": 42.15964
  },
  {
    "Name": "Близнаци",
    "RegionCode": "Варна",
    "Longitude": 27.868095,
    "Latitude": 43.060936
  },
  {
    "Name": "Близнаци",
    "RegionCode": "Шумен",
    "Longitude": 26.952745,
    "Latitude": 43.473312
  },
  {
    "Name": "Близнец",
    "RegionCode": "Сливен",
    "Longitude": 26.05169,
    "Latitude": 42.63292
  },
  {
    "Name": "Блъсково",
    "RegionCode": "Варна",
    "Longitude": 27.329365,
    "Latitude": 43.12149
  },
  {
    "Name": "Блъсковци",
    "RegionCode": "Велико Търново",
    "Longitude": 25.85455,
    "Latitude": 42.955338
  },
  {
    "Name": "Боазът",
    "RegionCode": "Габрово",
    "Longitude": 24.96158,
    "Latitude": 42.908115
  },
  {
    "Name": "Бобевци",
    "RegionCode": "Габрово",
    "Longitude": 25.299728,
    "Latitude": 42.941536
  },
  {
    "Name": "Бобешино",
    "RegionCode": "Кюстендил",
    "Longitude": 22.42309,
    "Latitude": 42.319744
  },
  {
    "Name": "Бобов дол",
    "RegionCode": "Кюстендил",
    "Longitude": 23.005188,
    "Latitude": 42.366386
  },
  {
    "Name": "Бобовец",
    "RegionCode": "Добрич",
    "Longitude": 28.086773,
    "Latitude": 43.439655
  },
  {
    "Name": "Бобораци",
    "RegionCode": "Перник",
    "Longitude": 22.966112,
    "Latitude": 42.47176
  },
  {
    "Name": "Бобошево",
    "RegionCode": "Кюстендил",
    "Longitude": 22.9995,
    "Latitude": 42.150967
  },
  {
    "Name": "Бов",
    "RegionCode": "София",
    "Longitude": null,
    "Latitude": null
  },
  {
    "Name": "Богатино",
    "RegionCode": "Кърджали",
    "Longitude": 25.167,
    "Latitude": 41.517
  },
  {
    "Name": "Богатово",
    "RegionCode": "Габрово",
    "Longitude": 25.157854,
    "Latitude": 43.032566
  },
  {
    "Name": "Богдан",
    "RegionCode": "Пловдив",
    "Longitude": 24.646862,
    "Latitude": 42.64367
  },
  {
    "Name": "Богдан",
    "RegionCode": "Добрич",
    "Longitude": 27.786806,
    "Latitude": 43.507732
  },
  {
    "Name": "Богданица",
    "RegionCode": "Пловдив",
    "Longitude": 25.02568,
    "Latitude": 42.106113
  },
  {
    "Name": "Богданлия",
    "RegionCode": "София",
    "Longitude": 23.687246,
    "Latitude": 42.614574
  },
  {
    "Name": "Богданов дол",
    "RegionCode": "Перник",
    "Longitude": 22.955303,
    "Latitude": 42.612305
  },
  {
    "Name": "Богданово",
    "RegionCode": "Бургас",
    "Longitude": 27.26134,
    "Latitude": 42.233116
  },
  {
    "Name": "Богданово",
    "RegionCode": "Сливен",
    "Longitude": 25.993938,
    "Latitude": 42.395267
  },
  {
    "Name": "Богдановци",
    "RegionCode": "София",
    "Longitude": 23.7649,
    "Latitude": 42.537888
  },
  {
    "Name": "Богданско",
    "RegionCode": "Велико Търново",
    "Longitude": 26.031548,
    "Latitude": 42.95867
  },
  {
    "Name": "Богданци",
    "RegionCode": "Разград",
    "Longitude": 26.816332,
    "Latitude": 43.611477
  },
  {
    "Name": "Богданци",
    "RegionCode": "Силистра",
    "Longitude": 26.789913,
    "Latitude": 43.97515
  },
  {
    "Name": "Богданчовци",
    "RegionCode": "Габрово",
    "Longitude": 25.363724,
    "Latitude": 42.8388
  },
  {
    "Name": "Богойна",
    "RegionCode": "Перник",
    "Longitude": 22.660545,
    "Latitude": 42.87117
  },
  {
    "Name": "Боголин",
    "RegionCode": "Благоевград",
    "Longitude": 23.957064,
    "Latitude": 41.539932
  },
  {
    "Name": "Богомил",
    "RegionCode": "Хасково",
    "Longitude": 26.023542,
    "Latitude": 41.989925
  },
  {
    "Name": "Богомилово",
    "RegionCode": "Стара Загора",
    "Longitude": 25.559261,
    "Latitude": 42.386776
  },
  {
    "Name": "Богомилци",
    "RegionCode": "Разград",
    "Longitude": 26.732946,
    "Latitude": 43.49469
  },
  {
    "Name": "Богомолско",
    "RegionCode": "Търговище",
    "Longitude": 26.111015,
    "Latitude": 43.044605
  },
  {
    "Name": "Богорово",
    "RegionCode": "Силистра",
    "Longitude": 27.36639,
    "Latitude": 44.023026
  },
  {
    "Name": "Богорово",
    "RegionCode": "Ямбол",
    "Longitude": 26.854622,
    "Latitude": 42.451214
  },
  {
    "Name": "Богородица",
    "RegionCode": "Благоевград",
    "Longitude": 23.19013,
    "Latitude": 41.511127
  },
  {
    "Name": "Богослов",
    "RegionCode": "Кюстендил",
    "Longitude": 22.673159,
    "Latitude": 42.253494
  },
  {
    "Name": "Богутево",
    "RegionCode": "Сливен",
    "Longitude": null,
    "Latitude": null
  },
  {
    "Name": "Богьовци",
    "RegionCode": "София",
    "Longitude": 23.13518,
    "Latitude": 42.877865
  },
  {
    "Name": "Боденец",
    "RegionCode": "VRC",
    "Longitude": 23.69936,
    "Latitude": 43.160076
  },
  {
    "Name": "Бодрово",
    "RegionCode": "Хасково",
    "Longitude": 25.323677,
    "Latitude": 42.024708
  },
  {
    "Name": "Боево",
    "RegionCode": "Сливен",
    "Longitude": null,
    "Latitude": null
  },
  {
    "Name": "Боерица",
    "RegionCode": "София",
    "Longitude": 23.719324,
    "Latitude": 42.45525
  },
  {
    "Name": "Божак",
    "RegionCode": "Кърджали",
    "Longitude": 25.286837,
    "Latitude": 41.702137
  },
  {
    "Name": "Божан",
    "RegionCode": "Добрич",
    "Longitude": 27.456623,
    "Latitude": 43.759876
  },
  {
    "Name": "Божаново",
    "RegionCode": "Добрич",
    "Longitude": 28.490437,
    "Latitude": 43.622345
  },
  {
    "Name": "Бождово",
    "RegionCode": "Благоевград",
    "Longitude": 23.360544,
    "Latitude": 41.600796
  },
  {
    "Name": "Божевци",
    "RegionCode": "Сливен",
    "Longitude": 26.134892,
    "Latitude": 42.865887
  },
  {
    "Name": "Боженица",
    "RegionCode": "София",
    "Longitude": 23.812971,
    "Latitude": 43.010254
  },
  {
    "Name": "Боженците",
    "RegionCode": "Габрово",
    "Longitude": 25.424608,
    "Latitude": 42.872654
  },
  {
    "Name": "Божичен",
    "RegionCode": "Русе",
    "Longitude": 25.95481,
    "Latitude": 43.716324
  },
  {
    "Name": "Божурец",
    "RegionCode": "Добрич",
    "Longitude": 28.295147,
    "Latitude": 43.424522
  },
  {
    "Name": "Божурица",
    "RegionCode": "Плевен",
    "Longitude": 24.595938,
    "Latitude": 43.509678
  },
  {
    "Name": "Божурище",
    "RegionCode": "София",
    "Longitude": 23.202003,
    "Latitude": 42.763496
  },
  {
    "Name": "Божурка",
    "RegionCode": "Търговище",
    "Longitude": 26.447445,
    "Latitude": 43.18382
  },
  {
    "Name": "Божурлук",
    "RegionCode": "Плевен",
    "Longitude": 25.182425,
    "Latitude": 43.535706
  },
  {
    "Name": "Божурово",
    "RegionCode": "Разград",
    "Longitude": 26.435518,
    "Latitude": 43.883144
  },
  {
    "Name": "Божурово",
    "RegionCode": "Добрич",
    "Longitude": 27.765831,
    "Latitude": 43.698803
  },
  {
    "Name": "Божурово",
    "RegionCode": "Шумен",
    "Longitude": 26.60766,
    "Latitude": 42.994617
  },
  {
    "Name": "Божурци",
    "RegionCode": "Кърджали",
    "Longitude": 25.329006,
    "Latitude": 41.74771
  },
  {
    "Name": "Бозаджии",
    "RegionCode": "Сливен",
    "Longitude": 26.329206,
    "Latitude": 42.479073
  },
  {
    "Name": "Бозвелийско",
    "RegionCode": "Варна",
    "Longitude": 27.47547,
    "Latitude": 43.104477
  },
  {
    "Name": "Боздуганово",
    "RegionCode": "Стара Загора",
    "Longitude": 25.760817,
    "Latitude": 42.33762
  },
  {
    "Name": "Бозьова",
    "RegionCode": "Пазарджик",
    "Longitude": 23.760466,
    "Latitude": 41.93558
  },
  {
    "Name": "Боил",
    "RegionCode": "Силистра",
    "Longitude": 26.954432,
    "Latitude": 43.807858
  },
  {
    "Name": "Бойковец",
    "RegionCode": "София",
    "Longitude": 23.920511,
    "Latitude": 42.831707
  },
  {
    "Name": "Бойково",
    "RegionCode": "Пловдив",
    "Longitude": 24.620548,
    "Latitude": 42.002327
  },
  {
    "Name": "Бойковци",
    "RegionCode": "Велико Търново",
    "Longitude": 26.09609,
    "Latitude": 42.89293
  },
  {
    "Name": "Бойник",
    "RegionCode": "Кърджали",
    "Longitude": 25.589556,
    "Latitude": 41.603703
  },
  {
    "Name": "Бойница",
    "RegionCode": "Видин",
    "Longitude": 22.532513,
    "Latitude": 43.95758
  },
  {
    "Name": "Бойно",
    "RegionCode": "Кърджали",
    "Longitude": 25.27756,
    "Latitude": 41.60168
  },
  {
    "Name": "Бойновци",
    "RegionCode": "Габрово",
    "Longitude": 25.218412,
    "Latitude": 42.85542
  },
  {
    "Name": "Бойчеви колиби",
    "RegionCode": "Велико Търново",
    "Longitude": 25.590246,
    "Latitude": 42.95346
  },
  {
    "Name": "Бойчета",
    "RegionCode": "Габрово",
    "Longitude": 25.351288,
    "Latitude": 42.797825
  },
  {
    "Name": "Бойчиновци",
    "RegionCode": "Монтана",
    "Longitude": 23.332699,
    "Latitude": 43.4715
  },
  {
    "Name": "Бойчовци",
    "RegionCode": "Велико Търново",
    "Longitude": 25.640974,
    "Latitude": 42.86087
  },
  {
    "Name": "Бокиловци",
    "RegionCode": "Монтана",
    "Longitude": 23.20144,
    "Latitude": 43.27555
  },
  {
    "Name": "Болтата",
    "RegionCode": "Габрово",
    "Longitude": 25.39797,
    "Latitude": 42.899345
  },
  {
    "Name": "Болярино",
    "RegionCode": "Пловдив",
    "Longitude": 25.04802,
    "Latitude": 42.23669
  },
  {
    "Name": "Болярово",
    "RegionCode": "Ямбол",
    "Longitude": 26.807762,
    "Latitude": 42.149303
  },
  {
    "Name": "Болярски извор",
    "RegionCode": "Хасково",
    "Longitude": 25.815979,
    "Latitude": 41.807602
  },
  {
    "Name": "Болярско",
    "RegionCode": "Ямбол",
    "Longitude": 26.356972,
    "Latitude": 42.43101
  },
  {
    "Name": "Болярци",
    "RegionCode": "Варна",
    "Longitude": 27.799648,
    "Latitude": 43.07052
  },
  {
    "Name": "Болярци",
    "RegionCode": "Кърджали",
    "Longitude": 25.449976,
    "Latitude": 41.70451
  },
  {
    "Name": "Болярци",
    "RegionCode": "Пловдив",
    "Longitude": 24.956999,
    "Latitude": 42.068336
  },
  {
    "Name": "Бонево",
    "RegionCode": "Добрич",
    "Longitude": 27.382051,
    "Latitude": 43.72818
  },
  {
    "Name": "Бор",
    "RegionCode": "Пловдив",
    "Longitude": 25.048803,
    "Latitude": 41.834827
  },
  {
    "Name": "Борец",
    "RegionCode": "Пловдив",
    "Longitude": 24.933527,
    "Latitude": 42.345673
  },
  {
    "Name": "Борие",
    "RegionCode": "Сливен",
    "Longitude": null,
    "Latitude": null
  },
  {
    "Name": "Борика",
    "RegionCode": "Сливен",
    "Longitude": 26.322868,
    "Latitude": 42.681652
  },
  {
    "Name": "Борика",
    "RegionCode": "София",
    "Longitude": 23.291882,
    "Latitude": 42.682102
  },
  {
    "Name": "Борики",
    "RegionCode": "Габрово",
    "Longitude": 25.365177,
    "Latitude": 42.873936
  },
  {
    "Name": "Бориково",
    "RegionCode": "Сливен",
    "Longitude": null,
    "Latitude": null
  },
  {
    "Name": "Бориловец",
    "RegionCode": "Видин",
    "Longitude": 22.497637,
    "Latitude": 43.99858
  },
  {
    "Name": "Борилово",
    "RegionCode": "Стара Загора",
    "Longitude": 25.552788,
    "Latitude": 42.479496
  },
  {
    "Name": "Борима",
    "RegionCode": "Ловеч",
    "Longitude": 24.582233,
    "Latitude": 42.974022
  },
  {
    "Name": "Боримечково",
    "RegionCode": "Пазарджик",
    "Longitude": 24.124868,
    "Latitude": 42.399105
  },
  {
    "Name": "Борино",
    "RegionCode": "Сливен",
    "Longitude": null,
    "Latitude": null
  },
  {
    "Name": "Бориново",
    "RegionCode": "Сливен",
    "Longitude": null,
    "Latitude": null
  },
  {
    "Name": "Боринци",
    "RegionCode": "Сливен",
    "Longitude": 26.212547,
    "Latitude": 42.934826
  },
  {
    "Name": "Борислав",
    "RegionCode": "Плевен",
    "Longitude": 24.965305,
    "Latitude": 43.31976
  },
  {
    "Name": "Бориславци",
    "RegionCode": "Хасково",
    "Longitude": 25.925295,
    "Latitude": 41.65992
  },
  {
    "Name": "Борисово",
    "RegionCode": "Русе",
    "Longitude": 26.23157,
    "Latitude": 43.932373
  },
  {
    "Name": "Борисово",
    "RegionCode": "Ямбол",
    "Longitude": 26.729454,
    "Latitude": 42.292442
  },
  {
    "Name": "Борнарево",
    "RegionCode": "Перник",
    "Longitude": 22.934196,
    "Latitude": 42.53661
  },
  {
    "Name": "Боров дол",
    "RegionCode": "Сливен",
    "Longitude": 26.077793,
    "Latitude": 42.736267
  },
  {
    "Name": "Борован",
    "RegionCode": "VRC",
    "Longitude": 23.753536,
    "Latitude": 43.42811
  },
  {
    "Name": "Боровец",
    "RegionCode": "Кюстендил",
    "Longitude": 23.024776,
    "Latitude": 42.104156
  },
  {
    "Name": "Боровина",
    "RegionCode": "Сливен",
    "Longitude": null,
    "Latitude": null
  },
  {
    "Name": "Боровица",
    "RegionCode": "Видин",
    "Longitude": 22.73656,
    "Latitude": 43.578457
  },
  {
    "Name": "Боровица",
    "RegionCode": "Кърджали",
    "Longitude": 25.218744,
    "Latitude": 41.656315
  },
  {
    "Name": "Боровичене",
    "RegionCode": "Благоевград",
    "Longitude": 23.008682,
    "Latitude": 41.417217
  },
  {
    "Name": "Борово",
    "RegionCode": "Благоевград",
    "Longitude": 23.73612,
    "Latitude": 41.593018
  },
  {
    "Name": "Борово",
    "RegionCode": "Русе",
    "Longitude": 25.805578,
    "Latitude": 43.484215
  },
  {
    "Name": "Борово",
    "RegionCode": "Пловдив",
    "Longitude": 24.875908,
    "Latitude": 41.84666
  },
  {
    "Name": "Борово",
    "RegionCode": "Стара Загора",
    "Longitude": 25.575249,
    "Latitude": 42.252796
  },
  {
    "Name": "Боровско",
    "RegionCode": "Кърджали",
    "Longitude": 25.232372,
    "Latitude": 41.73385
  },
  {
    "Name": "Боровци",
    "RegionCode": "Монтана",
    "Longitude": 23.180681,
    "Latitude": 43.3238
  },
  {
    "Name": "Борското",
    "RegionCode": "Габрово",
    "Longitude": 25.168964,
    "Latitude": 42.897522
  },
  {
    "Name": "Борущица",
    "RegionCode": "Стара Загора",
    "Longitude": 25.576498,
    "Latitude": 42.732292
  },
  {
    "Name": "Борци",
    "RegionCode": "Шумен",
    "Longitude": 26.891848,
    "Latitude": 43.548183
  },
  {
    "Name": "Боряна",
    "RegionCode": "Варна",
    "Longitude": 27.278147,
    "Latitude": 43.05262
  },
  {
    "Name": "Босевци",
    "RegionCode": "Велико Търново",
    "Longitude": 25.958576,
    "Latitude": 42.97369
  },
  {
    "Name": "Босилица",
    "RegionCode": "Кърджали",
    "Longitude": 25.232288,
    "Latitude": 41.752113
  },
  {
    "Name": "Босилково",
    "RegionCode": "Бургас",
    "Longitude": 27.010914,
    "Latitude": 42.821953
  },
  {
    "Name": "Босилково",
    "RegionCode": "Сливен",
    "Longitude": null,
    "Latitude": null
  },
  {
    "Name": "Босилковци",
    "RegionCode": "Русе",
    "Longitude": 25.588528,
    "Latitude": 43.473648
  },
  {
    "Name": "Босна",
    "RegionCode": "Силистра",
    "Longitude": 26.96965,
    "Latitude": 43.962788
  },
  {
    "Name": "Боснек",
    "RegionCode": "Перник",
    "Longitude": 23.180958,
    "Latitude": 42.4944
  },
  {
    "Name": "Бостанци",
    "RegionCode": "Кърджали",
    "Longitude": 25.378475,
    "Latitude": 41.76003
  },
  {
    "Name": "Бостина",
    "RegionCode": "Сливен",
    "Longitude": null,
    "Latitude": null
  },
  {
    "Name": "Ботевград",
    "RegionCode": "София",
    "Longitude": 23.793365,
    "Latitude": 42.90765
  },
  {
    "Name": "Ботево",
    "RegionCode": "Варна",
    "Longitude": 27.720251,
    "Latitude": 43.42919
  },
  {
    "Name": "Ботево",
    "RegionCode": "Видин",
    "Longitude": 22.861383,
    "Latitude": 43.836834
  },
  {
    "Name": "Ботево",
    "RegionCode": "VRC",
    "Longitude": 23.746859,
    "Latitude": 43.580463
  },
  {
    "Name": "Ботево",
    "RegionCode": "Монтана",
    "Longitude": 23.458778,
    "Latitude": 43.748352
  },
  {
    "Name": "Ботево",
    "RegionCode": "Ямбол",
    "Longitude": 26.361824,
    "Latitude": 42.35636
  },
  {
    "Name": "Ботров",
    "RegionCode": "Русе",
    "Longitude": 25.71566,
    "Latitude": 43.51279
  },
  {
    "Name": "Ботуня",
    "RegionCode": "VRC",
    "Longitude": 23.35912,
    "Latitude": 43.2878
  },
  {
    "Name": "Ботурче",
    "RegionCode": "Хасково",
    "Longitude": 25.941208,
    "Latitude": 41.380737
  },
  {
    "Name": "Бохова",
    "RegionCode": "Перник",
    "Longitude": 22.495277,
    "Latitude": 42.76715
  },
  {
    "Name": "Бохот",
    "RegionCode": "Плевен",
    "Longitude": 24.69208,
    "Latitude": 43.32128
  },
  {
    "Name": "Бочковци",
    "RegionCode": "Велико Търново",
    "Longitude": 25.673018,
    "Latitude": 42.83465
  },
  {
    "Name": "Бошуля",
    "RegionCode": "Пазарджик",
    "Longitude": 24.188318,
    "Latitude": 42.24509
  },
  {
    "Name": "Бояджик",
    "RegionCode": "Ямбол",
    "Longitude": 26.302353,
    "Latitude": 42.397232
  },
  {
    "Name": "Боян",
    "RegionCode": "Шумен",
    "Longitude": 26.841263,
    "Latitude": 43.48091
  },
  {
    "Name": "Боян Ботево",
    "RegionCode": "Хасково",
    "Longitude": 25.300795,
    "Latitude": 41.835175
  },
  {
    "Name": "Бояна",
    "RegionCode": "Варна",
    "Longitude": 27.650177,
    "Latitude": 43.435677
  },
  {
    "Name": "Бояново",
    "RegionCode": "Видин",
    "Longitude": 22.689522,
    "Latitude": 43.875526
  },
  {
    "Name": "Бояново",
    "RegionCode": "Ямбол",
    "Longitude": 26.628704,
    "Latitude": 42.2563
  },
  {
    "Name": "Бояновци",
    "RegionCode": "Велико Търново",
    "Longitude": 25.647081,
    "Latitude": 42.929577
  },
  {
    "Name": "Боянци",
    "RegionCode": "Пловдив",
    "Longitude": 24.94632,
    "Latitude": 42.039883
  },
  {
    "Name": "Брадвари",
    "RegionCode": "Силистра",
    "Longitude": 27.127625,
    "Latitude": 43.929123
  },
  {
    "Name": "Бракница",
    "RegionCode": "Търговище",
    "Longitude": 26.120663,
    "Latitude": 43.23678
  },
  {
    "Name": "Бракьовци",
    "RegionCode": "София",
    "Longitude": 23.15861,
    "Latitude": 43.06037
  },
  {
    "Name": "Браниполе",
    "RegionCode": "Пловдив",
    "Longitude": 24.756823,
    "Latitude": 42.08027
  },
  {
    "Name": "Браница",
    "RegionCode": "Хасково",
    "Longitude": 26.084307,
    "Latitude": 42.008
  },
  {
    "Name": "Браничево",
    "RegionCode": "Шумен",
    "Longitude": 27.091112,
    "Latitude": 43.68273
  },
  {
    "Name": "Бранище",
    "RegionCode": "Добрич",
    "Longitude": 27.84608,
    "Latitude": 43.52711
  },
  {
    "Name": "Бранковци",
    "RegionCode": "Велико Търново",
    "Longitude": 25.653637,
    "Latitude": 42.941998
  },
  {
    "Name": "Бранковци",
    "RegionCode": "Видин",
    "Longitude": 22.566477,
    "Latitude": 43.82779
  },
  {
    "Name": "Братан",
    "RegionCode": "Сливен",
    "Longitude": 26.341599,
    "Latitude": 42.985916
  },
  {
    "Name": "Братаница",
    "RegionCode": "Пазарджик",
    "Longitude": 24.220072,
    "Latitude": 42.165825
  },
  {
    "Name": "Братово",
    "RegionCode": "Бургас",
    "Longitude": 27.304049,
    "Latitude": 42.50446
  },
  {
    "Name": "Братово",
    "RegionCode": "Търговище",
    "Longitude": 26.410864,
    "Latitude": 43.179436
  },
  {
    "Name": "Братушково",
    "RegionCode": "София",
    "Longitude": 22.975145,
    "Latitude": 42.829956
  },
  {
    "Name": "Братя Даскалови",
    "RegionCode": "Стара Загора",
    "Longitude": 25.211462,
    "Latitude": 42.299664
  },
  {
    "Name": "Братя Кунчеви",
    "RegionCode": "Стара Загора",
    "Longitude": 25.853867,
    "Latitude": 42.49302
  },
  {
    "Name": "Брацигово",
    "RegionCode": "Пазарджик",
    "Longitude": 24.370825,
    "Latitude": 42.024944
  },
  {
    "Name": "Брегаре",
    "RegionCode": "Плевен",
    "Longitude": 24.330145,
    "Latitude": 43.594563
  },
  {
    "Name": "Брегово",
    "RegionCode": "Видин",
    "Longitude": 22.64201,
    "Latitude": 44.148434
  },
  {
    "Name": "Брегово",
    "RegionCode": "Кърджали",
    "Longitude": 25.348352,
    "Latitude": 41.427807
  },
  {
    "Name": "Брежана",
    "RegionCode": "Кърджали",
    "Longitude": 25.21514,
    "Latitude": 41.49074
  },
  {
    "Name": "Брежани",
    "RegionCode": "Благоевград",
    "Longitude": 23.186415,
    "Latitude": 41.863007
  },
  {
    "Name": "Брежниците",
    "RegionCode": "Габрово",
    "Longitude": 25.515985,
    "Latitude": 42.803093
  },
  {
    "Name": "Бреза",
    "RegionCode": "Сливен",
    "Longitude": 26.273123,
    "Latitude": 42.631397
  },
  {
    "Name": "Брезе",
    "RegionCode": "Сливен",
    "Longitude": null,
    "Latitude": null
  },
  {
    "Name": "Брезе",
    "RegionCode": "София",
    "Longitude": 23.196938,
    "Latitude": 43.03327
  },
  {
    "Name": "Брезен",
    "RegionCode": "Кърджали",
    "Longitude": 25.22532,
    "Latitude": 41.628113
  },
  {
    "Name": "Брезник",
    "RegionCode": "Перник",
    "Longitude": 22.90808,
    "Latitude": 42.74126
  },
  {
    "Name": "Брезница",
    "RegionCode": "Благоевград",
    "Longitude": 23.66183,
    "Latitude": 41.671364
  },
  {
    "Name": "Брезнишки извор",
    "RegionCode": "Перник",
    "Longitude": 22.80901,
    "Latitude": 42.727173
  },
  {
    "Name": "Брезовдол",
    "RegionCode": "София",
    "Longitude": 23.489922,
    "Latitude": 42.963707
  },
  {
    "Name": "Брезово",
    "RegionCode": "Велико Търново",
    "Longitude": 26.012266,
    "Latitude": 42.928383
  },
  {
    "Name": "Брезово",
    "RegionCode": "Пловдив",
    "Longitude": 25.076002,
    "Latitude": 42.346718
  },
  {
    "Name": "Бреница",
    "RegionCode": "Плевен",
    "Longitude": 24.12959,
    "Latitude": 43.428257
  },
  {
    "Name": "Бреница",
    "RegionCode": "Силистра",
    "Longitude": 26.615944,
    "Latitude": 43.891056
  },
  {
    "Name": "Брест",
    "RegionCode": "Кюстендил",
    "Longitude": 22.607454,
    "Latitude": 42.460114
  },
  {
    "Name": "Брест",
    "RegionCode": "Плевен",
    "Longitude": 24.591421,
    "Latitude": 43.64263
  },
  {
    "Name": "Брестак",
    "RegionCode": "Варна",
    "Longitude": 27.53898,
    "Latitude": 43.45993
  },
  {
    "Name": "Брестака",
    "RegionCode": "София",
    "Longitude": 23.919567,
    "Latitude": 42.606194
  },
  {
    "Name": "Бресте",
    "RegionCode": "Плевен",
    "Longitude": 24.591421,
    "Latitude": 43.64263
  },
  {
    "Name": "Брестник",
    "RegionCode": "Пловдив",
    "Longitude": 24.767702,
    "Latitude": 42.056267
  },
  {
    "Name": "Брестница",
    "RegionCode": "Ловеч",
    "Longitude": 24.195347,
    "Latitude": 43.070114
  },
  {
    "Name": "Брестница",
    "RegionCode": "Добрич",
    "Longitude": 27.575462,
    "Latitude": 43.881805
  },
  {
    "Name": "Брестова",
    "RegionCode": "Стара Загора",
    "Longitude": 25.74152,
    "Latitude": 42.662876
  },
  {
    "Name": "Брестовене",
    "RegionCode": "Разград",
    "Longitude": 26.599094,
    "Latitude": 43.759212
  },
  {
    "Name": "Брестовец",
    "RegionCode": "Плевен",
    "Longitude": 24.609936,
    "Latitude": 43.35376
  },
  {
    "Name": "Брестовица",
    "RegionCode": "Пловдив",
    "Longitude": 24.591913,
    "Latitude": 42.08361
  },
  {
    "Name": "Брестовица",
    "RegionCode": "Русе",
    "Longitude": 25.758564,
    "Latitude": 43.533707
  },
  {
    "Name": "Брестово",
    "RegionCode": "Благоевград",
    "Longitude": 23.003847,
    "Latitude": 41.8283
  },
  {
    "Name": "Брестово",
    "RegionCode": "Ловеч",
    "Longitude": 24.927774,
    "Latitude": 43.13789
  },
  {
    "Name": "Брод",
    "RegionCode": "Хасково",
    "Longitude": 25.676096,
    "Latitude": 42.050785
  },
  {
    "Name": "Бродилово",
    "RegionCode": "Бургас",
    "Longitude": 27.857635,
    "Latitude": 42.087677
  },
  {
    "Name": "Брош",
    "RegionCode": "Кърджали",
    "Longitude": 25.330511,
    "Latitude": 41.644688
  },
  {
    "Name": "Брусарци",
    "RegionCode": "Монтана",
    "Longitude": 23.066576,
    "Latitude": 43.66275
  },
  {
    "Name": "Брусевци",
    "RegionCode": "Хасково",
    "Longitude": 25.93552,
    "Latitude": 41.582466
  },
  {
    "Name": "Брусен",
    "RegionCode": "VRC",
    "Longitude": 23.747698,
    "Latitude": 43.135754
  },
  {
    "Name": "Брусен",
    "RegionCode": "София",
    "Longitude": 24.108524,
    "Latitude": 42.90288
  },
  {
    "Name": "Брусино",
    "RegionCode": "Хасково",
    "Longitude": 25.937548,
    "Latitude": 41.510456
  },
  {
    "Name": "Брусник",
    "RegionCode": "Перник",
    "Longitude": 22.841633,
    "Latitude": 42.83618
  },
  {
    "Name": "Брънеците",
    "RegionCode": "Габрово",
    "Longitude": 25.36029,
    "Latitude": 42.90166
  },
  {
    "Name": "Бръчковци",
    "RegionCode": "Велико Търново",
    "Longitude": 25.805613,
    "Latitude": 42.92986
  },
  {
    "Name": "Бръшлен",
    "RegionCode": "Русе",
    "Longitude": 26.364367,
    "Latitude": 43.995075
  },
  {
    "Name": "Бръшлян",
    "RegionCode": "Бургас",
    "Longitude": 27.4281,
    "Latitude": 42.046375
  },
  {
    "Name": "Бръшляница",
    "RegionCode": "Плевен",
    "Longitude": 24.73339,
    "Latitude": 43.54467
  },
  {
    "Name": "Бръщен",
    "RegionCode": "Сливен",
    "Longitude": null,
    "Latitude": null
  },
  {
    "Name": "Бряговец",
    "RegionCode": "Кърджали",
    "Longitude": 25.789886,
    "Latitude": 41.646378
  },
  {
    "Name": "Бряговица",
    "RegionCode": "Велико Търново",
    "Longitude": 25.88895,
    "Latitude": 43.19503
  },
  {
    "Name": "Брягово",
    "RegionCode": "Пловдив",
    "Longitude": 25.172592,
    "Latitude": 41.98531
  },
  {
    "Name": "Брягово",
    "RegionCode": "Хасково",
    "Longitude": 25.782593,
    "Latitude": 41.916145
  },
  {
    "Name": "Бряст",
    "RegionCode": "Хасково",
    "Longitude": 25.587046,
    "Latitude": 42.106033
  },
  {
    "Name": "Брястовец",
    "RegionCode": "Бургас",
    "Longitude": 27.465153,
    "Latitude": 42.6734
  },
  {
    "Name": "Брястово",
    "RegionCode": "Сливен",
    "Longitude": 25.93104,
    "Latitude": 42.52353
  },
  {
    "Name": "Брястово",
    "RegionCode": "Добрич",
    "Longitude": 28.209017,
    "Latitude": 43.45738
  },
  {
    "Name": "Брястово",
    "RegionCode": "Хасково",
    "Longitude": 25.321198,
    "Latitude": 41.9241
  },
  {
    "Name": "Бубино",
    "RegionCode": "Хасково",
    "Longitude": 25.810963,
    "Latitude": 41.558388
  },
  {
    "Name": "Бузовград",
    "RegionCode": "Стара Загора",
    "Longitude": 25.371294,
    "Latitude": 42.581814
  },
  {
    "Name": "Бузяковци",
    "RegionCode": "София",
    "Longitude": 23.791592,
    "Latitude": 42.535503
  },
  {
    "Name": "Буйновица",
    "RegionCode": "Шумен",
    "Longitude": 26.946331,
    "Latitude": 43.59328
  },
  {
    "Name": "Буйново",
    "RegionCode": "Сливен",
    "Longitude": 26.322868,
    "Latitude": 42.681652
  },
  {
    "Name": "Буйново",
    "RegionCode": "Търговище",
    "Longitude": 26.756607,
    "Latitude": 43.376812
  },
  {
    "Name": "Буйновци",
    "RegionCode": "Велико Търново",
    "Longitude": 25.893263,
    "Latitude": 42.868523
  },
  {
    "Name": "Бук",
    "RegionCode": "Кърджали",
    "Longitude": 25.552088,
    "Latitude": 41.347057
  },
  {
    "Name": "Букак",
    "RegionCode": "Търговище",
    "Longitude": 26.170895,
    "Latitude": 43.053215
  },
  {
    "Name": "Буката",
    "RegionCode": "Сливен",
    "Longitude": null,
    "Latitude": null
  },
  {
    "Name": "Букаците",
    "RegionCode": "Сливен",
    "Longitude": 26.322868,
    "Latitude": 42.681652
  },
  {
    "Name": "Букова поляна",
    "RegionCode": "Сливен",
    "Longitude": null,
    "Latitude": null
  },
  {
    "Name": "Буковец",
    "RegionCode": "Велико Търново",
    "Longitude": 25.488028,
    "Latitude": 43.045753
  },
  {
    "Name": "Буковец",
    "RegionCode": "Видин",
    "Longitude": 22.762447,
    "Latitude": 43.932648
  },
  {
    "Name": "Буковец",
    "RegionCode": "VRC",
    "Longitude": 23.830984,
    "Latitude": 43.356262
  },
  {
    "Name": "Буковец",
    "RegionCode": "Монтана",
    "Longitude": 22.970833,
    "Latitude": 43.59778
  },
  {
    "Name": "Буковец",
    "RegionCode": "София",
    "Longitude": 23.491226,
    "Latitude": 42.935143
  },
  {
    "Name": "Буковлък",
    "RegionCode": "Плевен",
    "Longitude": 24.616135,
    "Latitude": 43.443367
  },
  {
    "Name": "Буково",
    "RegionCode": "Благоевград",
    "Longitude": 23.714018,
    "Latitude": 41.71197
  },
  {
    "Name": "Буково",
    "RegionCode": "Сливен",
    "Longitude": 26.322868,
    "Latitude": 42.681652
  },
  {
    "Name": "Буково",
    "RegionCode": "Пловдив",
    "Longitude": 25.245373,
    "Latitude": 41.947723
  },
  {
    "Name": "Букоровци",
    "RegionCode": "София",
    "Longitude": 22.970093,
    "Latitude": 42.99195
  },
  {
    "Name": "Булаир",
    "RegionCode": "Варна",
    "Longitude": 27.44909,
    "Latitude": 42.89652
  },
  {
    "Name": "Буново",
    "RegionCode": "Кюстендил",
    "Longitude": 22.781998,
    "Latitude": 42.39427
  },
  {
    "Name": "Буново",
    "RegionCode": "София",
    "Longitude": 23.93223,
    "Latitude": 42.715714
  },
  {
    "Name": "Бунцево",
    "RegionCode": "Благоевград",
    "Longitude": 23.710138,
    "Latitude": 42.001823
  },
  {
    "Name": "Бураново",
    "RegionCode": "Кюстендил",
    "Longitude": 23.015385,
    "Latitude": 42.09241
  },
  {
    "Name": "Бургас",
    "RegionCode": "Бургас",
    "Longitude": 27.462637,
    "Latitude": 42.50479
  },
  {
    "Name": "Бурево",
    "RegionCode": "Сливен",
    "Longitude": null,
    "Latitude": null
  },
  {
    "Name": "Буря",
    "RegionCode": "Габрово",
    "Longitude": 25.313494,
    "Latitude": 43.029102
  },
  {
    "Name": "Бусинци",
    "RegionCode": "Перник",
    "Longitude": 22.626059,
    "Latitude": 42.780647
  },
  {
    "Name": "Бусманци",
    "RegionCode": "София (столица)",
    "Longitude": 23.431465,
    "Latitude": 42.675957
  },
  {
    "Name": "Бутан",
    "RegionCode": "VRC",
    "Longitude": 23.74999,
    "Latitude": 43.654186
  },
  {
    "Name": "Бутово",
    "RegionCode": "Велико Търново",
    "Longitude": 25.216413,
    "Latitude": 43.30243
  },
  {
    "Name": "Бутрева",
    "RegionCode": "Пазарджик",
    "Longitude": 23.799845,
    "Latitude": 42.005795
  },
  {
    "Name": "Бутроинци",
    "RegionCode": "Перник",
    "Longitude": 22.744131,
    "Latitude": 42.85077
  },
  {
    "Name": "Бухово",
    "RegionCode": "София (столица)",
    "Longitude": 23.566145,
    "Latitude": 42.76472
  },
  {
    "Name": "Буховци",
    "RegionCode": "Търговище",
    "Longitude": 26.701546,
    "Latitude": 43.31201
  },
  {
    "Name": "Бучин проход",
    "RegionCode": "София",
    "Longitude": 23.138493,
    "Latitude": 42.975212
  },
  {
    "Name": "Бучино",
    "RegionCode": "Благоевград",
    "Longitude": 23.022865,
    "Latitude": 42.04619
  },
  {
    "Name": "Бучуковци",
    "RegionCode": "Габрово",
    "Longitude": 25.44474,
    "Latitude": 42.917034
  },
  {
    "Name": "Бъдеще",
    "RegionCode": "Стара Загора",
    "Longitude": 25.671707,
    "Latitude": 42.306957
  },
  {
    "Name": "Бъзовец",
    "RegionCode": "Монтана",
    "Longitude": 23.555416,
    "Latitude": 43.63033
  },
  {
    "Name": "Бъзовец",
    "RegionCode": "Русе",
    "Longitude": 25.878056,
    "Latitude": 43.505512
  },
  {
    "Name": "Бъзовица",
    "RegionCode": "Кюстендил",
    "Longitude": 22.542059,
    "Latitude": 42.597115
  },
  {
    "Name": "Бъзън",
    "RegionCode": "Русе",
    "Longitude": 26.106073,
    "Latitude": 43.737236
  },
  {
    "Name": "Българаново",
    "RegionCode": "Търговище",
    "Longitude": 26.495337,
    "Latitude": 43.02198
  },
  {
    "Name": "Българево",
    "RegionCode": "Добрич",
    "Longitude": 28.41337,
    "Latitude": 43.401844
  },
  {
    "Name": "Българене",
    "RegionCode": "Ловеч",
    "Longitude": 24.771755,
    "Latitude": 43.048027
  },
  {
    "Name": "Българене",
    "RegionCode": "Плевен",
    "Longitude": 25.08328,
    "Latitude": 43.437588
  },
  {
    "Name": "Българене",
    "RegionCode": "Стара Загора",
    "Longitude": 25.908487,
    "Latitude": 42.250206
  },
  {
    "Name": "Българи",
    "RegionCode": "Бургас",
    "Longitude": 27.729355,
    "Latitude": 42.08788
  },
  {
    "Name": "Българин",
    "RegionCode": "Хасково",
    "Longitude": 25.952414,
    "Latitude": 41.955215
  },
  {
    "Name": "Българка",
    "RegionCode": "Силистра",
    "Longitude": 27.330854,
    "Latitude": 44.021225
  },
  {
    "Name": "Българово",
    "RegionCode": "Бургас",
    "Longitude": 27.306492,
    "Latitude": 42.62195
  },
  {
    "Name": "Българска поляна",
    "RegionCode": "Хасково",
    "Longitude": 26.198956,
    "Latitude": 42.03069
  },
  {
    "Name": "Български извор",
    "RegionCode": "Ловеч",
    "Longitude": 24.288225,
    "Latitude": 43.035564
  },
  {
    "Name": "Българско Сливово",
    "RegionCode": "Велико Търново",
    "Longitude": 25.31146,
    "Latitude": 43.54991
  },
  {
    "Name": "Българчево",
    "RegionCode": "Благоевград",
    "Longitude": 23.03253,
    "Latitude": 42.024143
  },
  {
    "Name": "Бънзарето",
    "RegionCode": "Стара Загора",
    "Longitude": 25.608398,
    "Latitude": 42.70409
  },
  {
    "Name": "Бърдарево",
    "RegionCode": "Варна",
    "Longitude": 27.59804,
    "Latitude": 42.923027
  },
  {
    "Name": "Бърдарите",
    "RegionCode": "Габрово",
    "Longitude": 25.438364,
    "Latitude": 42.811222
  },
  {
    "Name": "Бърдарски геран",
    "RegionCode": "VRC",
    "Longitude": 23.952667,
    "Latitude": 43.54695
  },
  {
    "Name": "Бърдени",
    "RegionCode": "Габрово",
    "Longitude": 25.554321,
    "Latitude": 42.890755
  },
  {
    "Name": "Бърдо",
    "RegionCode": "София",
    "Longitude": 23.805592,
    "Latitude": 42.568592
  },
  {
    "Name": "Бърдоква",
    "RegionCode": "Разград",
    "Longitude": 26.798613,
    "Latitude": 43.635162
  },
  {
    "Name": "Бърза река",
    "RegionCode": "Кърджали",
    "Longitude": 25.380533,
    "Latitude": 41.732216
  },
  {
    "Name": "Бързина",
    "RegionCode": "VRC",
    "Longitude": 23.718046,
    "Latitude": 43.553936
  },
  {
    "Name": "Бързица",
    "RegionCode": "Варна",
    "Longitude": 27.526865,
    "Latitude": 43.073093
  },
  {
    "Name": "Бързия",
    "RegionCode": "Монтана",
    "Longitude": 23.16167,
    "Latitude": 43.200676
  },
  {
    "Name": "Бъркач",
    "RegionCode": "Плевен",
    "Longitude": 24.444134,
    "Latitude": 43.293182
  },
  {
    "Name": "Бъркачево",
    "RegionCode": "VRC",
    "Longitude": 23.931658,
    "Latitude": 43.40911
  },
  {
    "Name": "Бърложница",
    "RegionCode": "София",
    "Longitude": 22.943567,
    "Latitude": 42.848747
  },
  {
    "Name": "Бърля",
    "RegionCode": "София",
    "Longitude": 22.98477,
    "Latitude": 43.101166
  },
  {
    "Name": "Бърчево",
    "RegionCode": "Сливен",
    "Longitude": null,
    "Latitude": null
  },
  {
    "Name": "Бъта",
    "RegionCode": "Пазарджик",
    "Longitude": 24.182806,
    "Latitude": 42.45093
  },
  {
    "Name": "Бяга",
    "RegionCode": "Пазарджик",
    "Longitude": 24.37627,
    "Latitude": 42.065517
  },
  {
    "Name": "Бял бряг",
    "RegionCode": "Шумен",
    "Longitude": 27.105719,
    "Latitude": 43.05604
  },
  {
    "Name": "Бял извор",
    "RegionCode": "Кърджали",
    "Longitude": 25.073458,
    "Latitude": 41.546505
  },
  {
    "Name": "Бял извор",
    "RegionCode": "Стара Загора",
    "Longitude": 25.635035,
    "Latitude": 42.155888
  },
  {
    "Name": "Бял кладенец",
    "RegionCode": "Сливен",
    "Longitude": 26.164236,
    "Latitude": 42.300335
  },
  {
    "Name": "Бял кладенец",
    "RegionCode": "Хасково",
    "Longitude": 25.63323,
    "Latitude": 41.64787
  },
  {
    "Name": "Бяла",
    "RegionCode": "Варна",
    "Longitude": 27.881117,
    "Latitude": 42.8799
  },
  {
    "Name": "Бяла",
    "RegionCode": "Русе",
    "Longitude": 25.739145,
    "Latitude": 43.45996
  },
  {
    "Name": "Бяла",
    "RegionCode": "Сливен",
    "Longitude": 26.19119,
    "Latitude": 42.73096
  },
  {
    "Name": "Бяла вода",
    "RegionCode": "Бургас",
    "Longitude": 27.455166,
    "Latitude": 42.165504
  },
  {
    "Name": "Бяла вода",
    "RegionCode": "Плевен",
    "Longitude": 25.038319,
    "Latitude": 43.6306
  },
  {
    "Name": "Бяла паланка",
    "RegionCode": "Сливен",
    "Longitude": 26.096016,
    "Latitude": 42.76195
  },
  {
    "Name": "Бяла поляна",
    "RegionCode": "Кърджали",
    "Longitude": 25.6282,
    "Latitude": 41.679348
  },
  {
    "Name": "Бяла река",
    "RegionCode": "Велико Търново",
    "Longitude": 25.205563,
    "Latitude": 43.132755
  },
  {
    "Name": "Бяла река",
    "RegionCode": "Пловдив",
    "Longitude": 25.263754,
    "Latitude": 42.058926
  },
  {
    "Name": "Бяла река",
    "RegionCode": "Сливен",
    "Longitude": 26.19119,
    "Latitude": 42.73096
  },
  {
    "Name": "Бяла река",
    "RegionCode": "Шумен",
    "Longitude": 26.778154,
    "Latitude": 42.99756
  },
  {
    "Name": "Бяла Слатина",
    "RegionCode": "VRC",
    "Longitude": 23.936607,
    "Latitude": 43.468773
  },
  {
    "Name": "Бяла черква",
    "RegionCode": "Велико Търново",
    "Longitude": 25.310808,
    "Latitude": 43.20541
  },
  {
    "Name": "Бялградец",
    "RegionCode": "Хасково",
    "Longitude": 25.910582,
    "Latitude": 41.42049
  },
  {
    "Name": "Бялка",
    "RegionCode": "Кърджали",
    "Longitude": 25.42131,
    "Latitude": 41.671654
  },
  {
    "Name": "Бялково",
    "RegionCode": "Габрово",
    "Longitude": 25.278492,
    "Latitude": 42.944096
  },
  {
    "Name": "Бялковци",
    "RegionCode": "Велико Търново",
    "Longitude": 26.005428,
    "Latitude": 42.94574
  },
  {
    "Name": "Бяло поле",
    "RegionCode": "Стара Загора",
    "Longitude": 25.71865,
    "Latitude": 42.16505
  },
  {
    "Name": "Вазово",
    "RegionCode": "Разград",
    "Longitude": 26.821085,
    "Latitude": 43.77377
  },
  {
    "Name": "Вакарел",
    "RegionCode": "София",
    "Longitude": 23.709757,
    "Latitude": 42.559353
  },
  {
    "Name": "Ваклино",
    "RegionCode": "Добрич",
    "Longitude": 28.504416,
    "Latitude": 43.64595
  },
  {
    "Name": "Ваклиново",
    "RegionCode": "Благоевград",
    "Longitude": 24.06342,
    "Latitude": 41.595566
  },
  {
    "Name": "Ваксево",
    "RegionCode": "Кюстендил",
    "Longitude": 22.857653,
    "Latitude": 42.157692
  },
  {
    "Name": "Валевци",
    "RegionCode": "Габрово",
    "Longitude": 25.0865,
    "Latitude": 42.837677
  },
  {
    "Name": "Валето",
    "RegionCode": "Велико Търново",
    "Longitude": 25.988228,
    "Latitude": 42.874718
  },
  {
    "Name": "Варана",
    "RegionCode": "Плевен",
    "Longitude": 25.218151,
    "Latitude": 43.35389
  },
  {
    "Name": "Варвара",
    "RegionCode": "Бургас",
    "Longitude": 27.90033,
    "Latitude": 42.119957
  },
  {
    "Name": "Варвара",
    "RegionCode": "Пазарджик",
    "Longitude": 24.1256,
    "Latitude": 42.16184
  },
  {
    "Name": "Вардим",
    "RegionCode": "Велико Търново",
    "Longitude": 25.458353,
    "Latitude": 43.614296
  },
  {
    "Name": "Вардун",
    "RegionCode": "Търговище",
    "Longitude": 26.530691,
    "Latitude": 43.133224
  },
  {
    "Name": "Варна",
    "RegionCode": "Варна",
    "Longitude": 27.914734,
    "Latitude": 43.21405
  },
  {
    "Name": "Варненци",
    "RegionCode": "Силистра",
    "Longitude": 26.620384,
    "Latitude": 43.942333
  },
  {
    "Name": "Варник",
    "RegionCode": "Хасково",
    "Longitude": 26.513836,
    "Latitude": 41.867218
  },
  {
    "Name": "Варовник",
    "RegionCode": "Бургас",
    "Longitude": 27.23411,
    "Latitude": 42.217205
  },
  {
    "Name": "Васил Друмев",
    "RegionCode": "Шумен",
    "Longitude": 27.026937,
    "Latitude": 43.247288
  },
  {
    "Name": "Васил Левски",
    "RegionCode": "Пловдив",
    "Longitude": 24.741491,
    "Latitude": 42.17599
  },
  {
    "Name": "Васил Левски",
    "RegionCode": "Силистра",
    "Longitude": 27.380348,
    "Latitude": 43.93308
  },
  {
    "Name": "Васил Левски",
    "RegionCode": "Стара Загора",
    "Longitude": 25.773268,
    "Latitude": 42.110172
  },
  {
    "Name": "Васил Левски",
    "RegionCode": "Търговище",
    "Longitude": 26.622498,
    "Latitude": 43.269123
  },
  {
    "Name": "Василево",
    "RegionCode": "Добрич",
    "Longitude": 28.183086,
    "Latitude": 43.61088
  },
  {
    "Name": "Василовци",
    "RegionCode": "Монтана",
    "Longitude": 23.133892,
    "Latitude": 43.71727
  },
  {
    "Name": "Василовци",
    "RegionCode": "София",
    "Longitude": 23.080544,
    "Latitude": 42.946102
  },
  {
    "Name": "Васильово",
    "RegionCode": "Ловеч",
    "Longitude": 24.371855,
    "Latitude": 42.876637
  },
  {
    "Name": "Васково",
    "RegionCode": "Хасково",
    "Longitude": 26.198168,
    "Latitude": 41.91721
  },
  {
    "Name": "Ведраре",
    "RegionCode": "Пловдив",
    "Longitude": 24.878653,
    "Latitude": 42.574245
  },
  {
    "Name": "Ведрина",
    "RegionCode": "Добрич",
    "Longitude": 27.666265,
    "Latitude": 43.50008
  },
  {
    "Name": "Ведрово",
    "RegionCode": "Бургас",
    "Longitude": 26.979967,
    "Latitude": 42.83704
  },
  {
    "Name": "Везенково",
    "RegionCode": "Бургас",
    "Longitude": 26.70616,
    "Latitude": 42.853413
  },
  {
    "Name": "Векилски",
    "RegionCode": "Шумен",
    "Longitude": 27.382654,
    "Latitude": 43.56923
  },
  {
    "Name": "Веленци",
    "RegionCode": "Габрово",
    "Longitude": 25.463173,
    "Latitude": 42.871883
  },
  {
    "Name": "Велешани",
    "RegionCode": "Кърджали",
    "Longitude": 25.27372,
    "Latitude": 41.575558
  },
  {
    "Name": "Велика",
    "RegionCode": "Бургас",
    "Longitude": 27.780012,
    "Latitude": 42.1834
  },
  {
    "Name": "Великан",
    "RegionCode": "Хасково",
    "Longitude": 25.453941,
    "Latitude": 42.10562
  },
  {
    "Name": "Великденче",
    "RegionCode": "Кърджали",
    "Longitude": 25.351164,
    "Latitude": 41.451572
  },
  {
    "Name": "Великденче",
    "RegionCode": "Търговище",
    "Longitude": 26.387472,
    "Latitude": 43.095905
  },
  {
    "Name": "Велики Преслав",
    "RegionCode": "Шумен",
    "Longitude": 26.817966,
    "Latitude": 43.16454
  },
  {
    "Name": "Велико Търново",
    "RegionCode": "Велико Търново",
    "Longitude": 25.617151,
    "Latitude": 43.075672
  },
  {
    "Name": "Великово",
    "RegionCode": "Стара Загора",
    "Longitude": 25.801767,
    "Latitude": 42.18615
  },
  {
    "Name": "Великово",
    "RegionCode": "Добрич",
    "Longitude": 28.230782,
    "Latitude": 43.64539
  },
  {
    "Name": "Великовци",
    "RegionCode": "Търговище",
    "Longitude": 26.168184,
    "Latitude": 43.03741
  },
  {
    "Name": "Велинград",
    "RegionCode": "Пазарджик",
    "Longitude": 23.991552,
    "Latitude": 42.027542
  },
  {
    "Name": "Велино",
    "RegionCode": "Шумен",
    "Longitude": 27.032124,
    "Latitude": 43.419487
  },
  {
    "Name": "Велиново",
    "RegionCode": "Перник",
    "Longitude": 22.70052,
    "Latitude": 42.78887
  },
  {
    "Name": "Велислав",
    "RegionCode": "Бургас",
    "Longitude": 26.7613,
    "Latitude": 42.86433
  },
  {
    "Name": "Величка",
    "RegionCode": "Търговище",
    "Longitude": 26.620815,
    "Latitude": 43.0125
  },
  {
    "Name": "Величково",
    "RegionCode": "Варна",
    "Longitude": 27.444445,
    "Latitude": 43.0466
  },
  {
    "Name": "Величково",
    "RegionCode": "Пазарджик",
    "Longitude": 24.22345,
    "Latitude": 42.253105
  },
  {
    "Name": "Велково",
    "RegionCode": "Габрово",
    "Longitude": 25.591589,
    "Latitude": 42.876312
  },
  {
    "Name": "Велковци",
    "RegionCode": "Велико Търново",
    "Longitude": 25.905962,
    "Latitude": 42.894436
  },
  {
    "Name": "Велковци",
    "RegionCode": "Габрово",
    "Longitude": 25.37168,
    "Latitude": 42.940453
  },
  {
    "Name": "Велковци",
    "RegionCode": "Перник",
    "Longitude": 22.670555,
    "Latitude": 42.708057
  },
  {
    "Name": "Велчево",
    "RegionCode": "Велико Търново",
    "Longitude": 25.7056,
    "Latitude": 43.001682
  },
  {
    "Name": "Велчево",
    "RegionCode": "Ловеч",
    "Longitude": 24.83468,
    "Latitude": 42.890648
  },
  {
    "Name": "Велчовци",
    "RegionCode": "Габрово",
    "Longitude": 25.571613,
    "Latitude": 42.801823
  },
  {
    "Name": "Вельово",
    "RegionCode": "Търговище",
    "Longitude": 26.291441,
    "Latitude": 43.08942
  },
  {
    "Name": "Велювци",
    "RegionCode": "Велико Търново",
    "Longitude": 25.838142,
    "Latitude": 42.969364
  },
  {
    "Name": "Велющец",
    "RegionCode": "Благоевград",
    "Longitude": 23.141489,
    "Latitude": 41.588066
  },
  {
    "Name": "Венелин",
    "RegionCode": "Варна",
    "Longitude": 27.67147,
    "Latitude": 43.04311
  },
  {
    "Name": "Венец",
    "RegionCode": "Бургас",
    "Longitude": 26.807863,
    "Latitude": 42.64006
  },
  {
    "Name": "Венец",
    "RegionCode": "Стара Загора",
    "Longitude": 25.737806,
    "Latitude": 42.19494
  },
  {
    "Name": "Венец",
    "RegionCode": "Шумен",
    "Longitude": 26.922365,
    "Latitude": 43.548164
  },
  {
    "Name": "Венковец",
    "RegionCode": "София",
    "Longitude": 23.697262,
    "Latitude": 42.454334
  },
  {
    "Name": "Венчан",
    "RegionCode": "Варна",
    "Longitude": 27.388533,
    "Latitude": 43.235233
  },
  {
    "Name": "Верен",
    "RegionCode": "Стара Загора",
    "Longitude": 25.189043,
    "Latitude": 42.348534
  },
  {
    "Name": "Веренци",
    "RegionCode": "Търговище",
    "Longitude": 26.436897,
    "Latitude": 43.06454
  },
  {
    "Name": "Веринско",
    "RegionCode": "София",
    "Longitude": 23.75429,
    "Latitude": 42.479534
  },
  {
    "Name": "Верско",
    "RegionCode": "Кърджали",
    "Longitude": 25.338966,
    "Latitude": 41.71018
  },
  {
    "Name": "Веселец",
    "RegionCode": "Разград",
    "Longitude": 26.73295,
    "Latitude": 43.811447
  },
  {
    "Name": "Веселец",
    "RegionCode": "Търговище",
    "Longitude": 26.48607,
    "Latitude": 43.03033
  },
  {
    "Name": "Веселие",
    "RegionCode": "Бургас",
    "Longitude": 27.62185,
    "Latitude": 42.326664
  },
  {
    "Name": "Веселина",
    "RegionCode": "Велико Търново",
    "Longitude": 25.855953,
    "Latitude": 42.86209
  },
  {
    "Name": "Веселина",
    "RegionCode": "Разград",
    "Longitude": 26.686678,
    "Latitude": 43.456303
  },
  {
    "Name": "Веселиново",
    "RegionCode": "Шумен",
    "Longitude": 27.029676,
    "Latitude": 42.983067
  },
  {
    "Name": "Веселиново",
    "RegionCode": "Ямбол",
    "Longitude": 26.544456,
    "Latitude": 42.532555
  },
  {
    "Name": "Веслец",
    "RegionCode": "VRC",
    "Longitude": 23.668074,
    "Latitude": 43.260395
  },
  {
    "Name": "Ветово",
    "RegionCode": "Русе",
    "Longitude": 26.263855,
    "Latitude": 43.703293
  },
  {
    "Name": "Ветрен",
    "RegionCode": "Кюстендил",
    "Longitude": 22.739246,
    "Latitude": 42.06791
  },
  {
    "Name": "Ветрен",
    "RegionCode": "Пазарджик",
    "Longitude": 24.04793,
    "Latitude": 42.278877
  },
  {
    "Name": "Ветрен",
    "RegionCode": "Силистра",
    "Longitude": 27.031912,
    "Latitude": 44.121944
  },
  {
    "Name": "Ветрен",
    "RegionCode": "Стара Загора",
    "Longitude": 25.691244,
    "Latitude": 42.60655
  },
  {
    "Name": "Ветрен дол",
    "RegionCode": "Пазарджик",
    "Longitude": 24.157507,
    "Latitude": 42.15808
  },
  {
    "Name": "Ветрино",
    "RegionCode": "Варна",
    "Longitude": 27.433735,
    "Latitude": 43.315514
  },
  {
    "Name": "Ветринци",
    "RegionCode": "Велико Търново",
    "Longitude": 25.431849,
    "Latitude": 43.069614
  },
  {
    "Name": "Ветрище",
    "RegionCode": "Шумен",
    "Longitude": 27.03643,
    "Latitude": 43.18482
  },
  {
    "Name": "Ветрово",
    "RegionCode": "Габрово",
    "Longitude": 25.294712,
    "Latitude": 42.929016
  },
  {
    "Name": "Ветрушка",
    "RegionCode": "Хасково",
    "Longitude": 25.865704,
    "Latitude": 41.451797
  },
  {
    "Name": "Вехтино",
    "RegionCode": "Сливен",
    "Longitude": null,
    "Latitude": null
  },
  {
    "Name": "Вехтово",
    "RegionCode": "Шумен",
    "Longitude": 27.083242,
    "Latitude": 43.168594
  },
  {
    "Name": "Вещица",
    "RegionCode": "Видин",
    "Longitude": 22.596222,
    "Latitude": 43.6774
  },
  {
    "Name": "Виден",
    "RegionCode": "Стара Загора",
    "Longitude": 25.236326,
    "Latitude": 42.6022
  },
  {
    "Name": "Видин",
    "RegionCode": "Видин",
    "Longitude": 22.86793,
    "Latitude": 43.99616
  },
  {
    "Name": "Видинци",
    "RegionCode": "Ямбол",
    "Longitude": 26.384602,
    "Latitude": 42.312355
  },
  {
    "Name": "Видлица",
    "RegionCode": "Монтана",
    "Longitude": 23.066288,
    "Latitude": 43.418983
  },
  {
    "Name": "Видно",
    "RegionCode": "Добрич",
    "Longitude": 28.364502,
    "Latitude": 43.54403
  },
  {
    "Name": "Видрар",
    "RegionCode": "Перник",
    "Longitude": 22.590086,
    "Latitude": 42.673542
  },
  {
    "Name": "Видраре",
    "RegionCode": "София",
    "Longitude": 24.010387,
    "Latitude": 42.99246
  },
  {
    "Name": "Видрица",
    "RegionCode": "Перник",
    "Longitude": 22.863398,
    "Latitude": 42.760372
  },
  {
    "Name": "Виево",
    "RegionCode": "Сливен",
    "Longitude": null,
    "Latitude": null
  },
  {
    "Name": "Визица",
    "RegionCode": "Бургас",
    "Longitude": 27.60609,
    "Latitude": 42.12388
  },
  {
    "Name": "Виларе",
    "RegionCode": "Велико Търново",
    "Longitude": 25.607307,
    "Latitude": 42.818844
  },
  {
    "Name": "Винарово",
    "RegionCode": "Видин",
    "Longitude": 22.82098,
    "Latitude": 44.0955
  },
  {
    "Name": "Винарово",
    "RegionCode": "Стара Загора",
    "Longitude": 25.413374,
    "Latitude": 42.298912
  },
  {
    "Name": "Винарско",
    "RegionCode": "Бургас",
    "Longitude": 27.20016,
    "Latitude": 42.6041
  },
  {
    "Name": "Винево",
    "RegionCode": "Хасково",
    "Longitude": 25.306765,
    "Latitude": 41.8106
  },
  {
    "Name": "Виница",
    "RegionCode": "Пловдив",
    "Longitude": 25.135674,
    "Latitude": 42.135796
  },
  {
    "Name": "Винище",
    "RegionCode": "Монтана",
    "Longitude": 23.069979,
    "Latitude": 43.48324
  },
  {
    "Name": "Виноград",
    "RegionCode": "Велико Търново",
    "Longitude": 25.828882,
    "Latitude": 43.338615
  },
  {
    "Name": "Виноградец",
    "RegionCode": "Пазарджик",
    "Longitude": 24.129633,
    "Latitude": 42.286884
  },
  {
    "Name": "Виногради",
    "RegionCode": "Благоевград",
    "Longitude": 23.383806,
    "Latitude": 41.497395
  },
  {
    "Name": "Вирове",
    "RegionCode": "Монтана",
    "Longitude": 23.23467,
    "Latitude": 43.52153
  },
  {
    "Name": "Вировско",
    "RegionCode": "VRC",
    "Longitude": 23.795246,
    "Latitude": 43.29914
  },
  {
    "Name": "Вис",
    "RegionCode": "Хасково",
    "Longitude": 25.85677,
    "Latitude": 41.44613
  },
  {
    "Name": "Вискяр",
    "RegionCode": "Перник",
    "Longitude": 22.963999,
    "Latitude": 42.714535
  },
  {
    "Name": "Висок",
    "RegionCode": "Търговище",
    "Longitude": 26.483053,
    "Latitude": 43.05745
  },
  {
    "Name": "Висока",
    "RegionCode": "Кърджали",
    "Longitude": 25.234596,
    "Latitude": 41.71923
  },
  {
    "Name": "Висока могила",
    "RegionCode": "Кюстендил",
    "Longitude": 23.023373,
    "Latitude": 42.192333
  },
  {
    "Name": "Висока поляна",
    "RegionCode": "Кърджали",
    "Longitude": 25.50868,
    "Latitude": 41.67373
  },
  {
    "Name": "Висока поляна",
    "RegionCode": "Шумен",
    "Longitude": 26.775642,
    "Latitude": 43.464516
  },
  {
    "Name": "Високите",
    "RegionCode": "Сливен",
    "Longitude": null,
    "Latitude": null
  },
  {
    "Name": "Високовци",
    "RegionCode": "Велико Търново",
    "Longitude": 25.960838,
    "Latitude": 42.849644
  },
  {
    "Name": "Витановци",
    "RegionCode": "Перник",
    "Longitude": 22.983404,
    "Latitude": 42.647953
  },
  {
    "Name": "Витина",
    "RegionCode": "Сливен",
    "Longitude": 26.322868,
    "Latitude": 42.681652
  },
  {
    "Name": "Вихрен",
    "RegionCode": "Благоевград",
    "Longitude": 23.331772,
    "Latitude": 41.615093
  },
  {
    "Name": "Вичово",
    "RegionCode": "Добрич",
    "Longitude": 28.318789,
    "Latitude": 43.743473
  },
  {
    "Name": "Вишан",
    "RegionCode": "София",
    "Longitude": 22.79709,
    "Latitude": 42.939854
  },
  {
    "Name": "Вишеград",
    "RegionCode": "Кърджали",
    "Longitude": 25.407785,
    "Latitude": 41.60797
  },
  {
    "Name": "Вишлене",
    "RegionCode": "Благоевград",
    "Longitude": 23.062698,
    "Latitude": 41.43831
  },
  {
    "Name": "Вишна",
    "RegionCode": "Бургас",
    "Longitude": 27.187294,
    "Latitude": 42.893547
  },
  {
    "Name": "Вишнево",
    "RegionCode": "Сливен",
    "Longitude": null,
    "Latitude": null
  },
  {
    "Name": "Вишовград",
    "RegionCode": "Велико Търново",
    "Longitude": 25.298616,
    "Latitude": 43.156876
  },
  {
    "Name": "Владая",
    "RegionCode": "София (столица)",
    "Longitude": 23.195612,
    "Latitude": 42.62833
  },
  {
    "Name": "Владимир",
    "RegionCode": "Перник",
    "Longitude": 23.082392,
    "Latitude": 42.44142
  },
  {
    "Name": "Владимирово",
    "RegionCode": "Монтана",
    "Longitude": 23.395027,
    "Latitude": 43.533695
  },
  {
    "Name": "Владимирово",
    "RegionCode": "Добрич",
    "Longitude": 27.53487,
    "Latitude": 43.551388
  },
  {
    "Name": "Владимирово",
    "RegionCode": "Хасково",
    "Longitude": 26.142178,
    "Latitude": 42.127953
  },
  {
    "Name": "Владимировци",
    "RegionCode": "Разград",
    "Longitude": 26.862991,
    "Latitude": 43.625626
  },
  {
    "Name": "Владиня",
    "RegionCode": "Ловеч",
    "Longitude": 24.795872,
    "Latitude": 43.29515
  },
  {
    "Name": "Владислав",
    "RegionCode": "Велико Търново",
    "Longitude": 25.996252,
    "Latitude": 43.18943
  },
  {
    "Name": "Владиславци",
    "RegionCode": "София",
    "Longitude": 22.841307,
    "Latitude": 42.920456
  },
  {
    "Name": "Владиченци",
    "RegionCode": "Видин",
    "Longitude": 22.850786,
    "Latitude": 43.782497
  },
  {
    "Name": "Владо Тричков",
    "RegionCode": "София",
    "Longitude": 23.37006,
    "Latitude": 42.86819
  },
  {
    "Name": "Владовци",
    "RegionCode": "Габрово",
    "Longitude": 25.553375,
    "Latitude": 42.920002
  },
  {
    "Name": "Влайчовци",
    "RegionCode": "Габрово",
    "Longitude": 25.254988,
    "Latitude": 42.948498
  },
  {
    "Name": "Власатили",
    "RegionCode": "Габрово",
    "Longitude": 25.587269,
    "Latitude": 42.806828
  },
  {
    "Name": "Власатица",
    "RegionCode": "VRC",
    "Longitude": 23.46927,
    "Latitude": 43.30268
  },
  {
    "Name": "Влахи",
    "RegionCode": "Благоевград",
    "Longitude": 23.230852,
    "Latitude": 41.738228
  },
  {
    "Name": "Влахово",
    "RegionCode": "Сливен",
    "Longitude": null,
    "Latitude": null
  },
  {
    "Name": "Влаховци",
    "RegionCode": "Габрово",
    "Longitude": 25.401787,
    "Latitude": 42.883945
  },
  {
    "Name": "Водата",
    "RegionCode": "Сливен",
    "Longitude": 26.322868,
    "Latitude": 42.681652
  },
  {
    "Name": "Водач",
    "RegionCode": "Кърджали",
    "Longitude": 25.298265,
    "Latitude": 41.759335
  },
  {
    "Name": "Воден",
    "RegionCode": "Пловдив",
    "Longitude": 25.295908,
    "Latitude": 41.965603
  },
  {
    "Name": "Воден",
    "RegionCode": "Хасково",
    "Longitude": 25.656895,
    "Latitude": 42.010254
  },
  {
    "Name": "Воден",
    "RegionCode": "Ямбол",
    "Longitude": 26.897934,
    "Latitude": 42.07298
  },
  {
    "Name": "Воденичане",
    "RegionCode": "Ямбол",
    "Longitude": 26.69459,
    "Latitude": 42.543568
  },
  {
    "Name": "Воденичарово",
    "RegionCode": "Стара Загора",
    "Longitude": 25.498049,
    "Latitude": 42.239033
  },
  {
    "Name": "Воденичарско",
    "RegionCode": "Кърджали",
    "Longitude": 25.254923,
    "Latitude": 41.493652
  },
  {
    "Name": "Воденци",
    "RegionCode": "Хасково",
    "Longitude": 25.685665,
    "Latitude": 41.68399
  },
  {
    "Name": "Водица",
    "RegionCode": "Варна",
    "Longitude": 27.735525,
    "Latitude": 43.368774
  },
  {
    "Name": "Водица",
    "RegionCode": "Търговище",
    "Longitude": 26.052,
    "Latitude": 43.35248
  },
  {
    "Name": "Водна",
    "RegionCode": "Видин",
    "Longitude": 22.707903,
    "Latitude": 43.852215
  },
  {
    "Name": "Водни пад",
    "RegionCode": "Сливен",
    "Longitude": null,
    "Latitude": null
  },
  {
    "Name": "Водно",
    "RegionCode": "Велико Търново",
    "Longitude": 26.045246,
    "Latitude": 43.10809
  },
  {
    "Name": "Водно",
    "RegionCode": "Силистра",
    "Longitude": 27.148973,
    "Latitude": 43.859035
  },
  {
    "Name": "Воднянци",
    "RegionCode": "Видин",
    "Longitude": 22.866964,
    "Latitude": 43.702038
  },
  {
    "Name": "Воднянци",
    "RegionCode": "Добрич",
    "Longitude": 27.548676,
    "Latitude": 43.74703
  },
  {
    "Name": "Водолей",
    "RegionCode": "Велико Търново",
    "Longitude": 25.508179,
    "Latitude": 43.215523
  },
  {
    "Name": "Вождово",
    "RegionCode": "Кърджали",
    "Longitude": 25.370203,
    "Latitude": 41.759
  },
  {
    "Name": "Войвода",
    "RegionCode": "Шумен",
    "Longitude": 27.125116,
    "Latitude": 43.45881
  },
  {
    "Name": "Войводенец",
    "RegionCode": "Хасково",
    "Longitude": 25.736422,
    "Latitude": 41.656673
  },
  {
    "Name": "Войводино",
    "RegionCode": "Варна",
    "Longitude": 27.615265,
    "Latitude": 43.40541
  },
  {
    "Name": "Войводиново",
    "RegionCode": "Пловдив",
    "Longitude": 24.793463,
    "Latitude": 42.19881
  },
  {
    "Name": "Войводово",
    "RegionCode": "VRC",
    "Longitude": 23.84261,
    "Latitude": 43.647743
  },
  {
    "Name": "Войводово",
    "RegionCode": "Хасково",
    "Longitude": 25.54673,
    "Latitude": 41.857925
  },
  {
    "Name": "Войкова лъка",
    "RegionCode": "Сливен",
    "Longitude": null,
    "Latitude": null
  },
  {
    "Name": "Войнеговци",
    "RegionCode": "София (столица)",
    "Longitude": 23.422018,
    "Latitude": 42.800552
  },
  {
    "Name": "Войнежа",
    "RegionCode": "Велико Търново",
    "Longitude": 25.67536,
    "Latitude": 42.882107
  },
  {
    "Name": "Войника",
    "RegionCode": "Ямбол",
    "Longitude": 26.818169,
    "Latitude": 42.385754
  },
  {
    "Name": "Войниково",
    "RegionCode": "Добрич",
    "Longitude": 27.372099,
    "Latitude": 43.70208
  },
  {
    "Name": "Войница",
    "RegionCode": "Видин",
    "Longitude": 22.696014,
    "Latitude": 43.935814
  },
  {
    "Name": "Войници",
    "RegionCode": "Монтана",
    "Longitude": 23.172783,
    "Latitude": 43.449387
  },
  {
    "Name": "Войниците",
    "RegionCode": "Габрово",
    "Longitude": 25.472548,
    "Latitude": 42.904396
  },
  {
    "Name": "Войнишка",
    "RegionCode": "Габрово",
    "Longitude": 25.011297,
    "Latitude": 42.857273
  },
  {
    "Name": "Войново",
    "RegionCode": "Кърджали",
    "Longitude": 25.177004,
    "Latitude": 41.749725
  },
  {
    "Name": "Войново",
    "RegionCode": "Силистра",
    "Longitude": 27.441868,
    "Latitude": 43.975132
  },
  {
    "Name": "Войнягово",
    "RegionCode": "Пловдив",
    "Longitude": 24.754915,
    "Latitude": 42.57459
  },
  {
    "Name": "Войсил",
    "RegionCode": "Пловдив",
    "Longitude": 24.624542,
    "Latitude": 42.225822
  },
  {
    "Name": "Вокил",
    "RegionCode": "Силистра",
    "Longitude": 27.06277,
    "Latitude": 43.771317
  },
  {
    "Name": "Волно",
    "RegionCode": "Благоевград",
    "Longitude": 23.026949,
    "Latitude": 41.479393
  },
  {
    "Name": "Воловарово",
    "RegionCode": "Стара Загора",
    "Longitude": 25.40197,
    "Latitude": 42.206936
  },
  {
    "Name": "Воловарци",
    "RegionCode": "Кърджали",
    "Longitude": 25.31087,
    "Latitude": 41.577694
  },
  {
    "Name": "Волово",
    "RegionCode": "Русе",
    "Longitude": 25.796883,
    "Latitude": 43.525703
  },
  {
    "Name": "Волуяк",
    "RegionCode": "София (столица)",
    "Longitude": 23.244194,
    "Latitude": 42.769394
  },
  {
    "Name": "Вонеща вода",
    "RegionCode": "Велико Търново",
    "Longitude": 25.643517,
    "Latitude": 42.87663
  },
  {
    "Name": "Врабево",
    "RegionCode": "Ловеч",
    "Longitude": 24.81363,
    "Latitude": 42.992836
  },
  {
    "Name": "Врабците",
    "RegionCode": "Габрово",
    "Longitude": 25.208538,
    "Latitude": 42.86231
  },
  {
    "Name": "Врабча",
    "RegionCode": "Перник",
    "Longitude": 22.70743,
    "Latitude": 42.867386
  },
  {
    "Name": "Вракуповица",
    "RegionCode": "Благоевград",
    "Longitude": 23.08901,
    "Latitude": 41.661964
  },
  {
    "Name": "Враненци",
    "RegionCode": "Пазарджик",
    "Longitude": 23.815298,
    "Latitude": 41.994564
  },
  {
    "Name": "Врани кон",
    "RegionCode": "Търговище",
    "Longitude": 26.563293,
    "Latitude": 43.022667
  },
  {
    "Name": "Враниловци",
    "RegionCode": "Габрово",
    "Longitude": 25.217705,
    "Latitude": 42.91529
  },
  {
    "Name": "Вранино",
    "RegionCode": "Добрич",
    "Longitude": 28.307222,
    "Latitude": 43.526627
  },
  {
    "Name": "Вранинци",
    "RegionCode": "Сливен",
    "Longitude": null,
    "Latitude": null
  },
  {
    "Name": "Вранско",
    "RegionCode": "Кърджали",
    "Longitude": 25.635874,
    "Latitude": 41.487465
  },
  {
    "Name": "Враня",
    "RegionCode": "Благоевград",
    "Longitude": 23.402246,
    "Latitude": 41.44874
  },
  {
    "Name": "Враня стена",
    "RegionCode": "Перник",
    "Longitude": 22.732716,
    "Latitude": 42.52375
  },
  {
    "Name": "Враняк",
    "RegionCode": "VRC",
    "Longitude": 23.932339,
    "Latitude": 43.373302
  },
  {
    "Name": "Врата",
    "RegionCode": "Пловдив",
    "Longitude": 24.960892,
    "Latitude": 41.855522
  },
  {
    "Name": "Вратарите",
    "RegionCode": "Добрич",
    "Longitude": 27.544016,
    "Latitude": 43.517284
  },
  {
    "Name": "Вратица",
    "RegionCode": "Бургас",
    "Longitude": 27.160933,
    "Latitude": 42.58756
  },
  {
    "Name": "Вратца",
    "RegionCode": "Кюстендил",
    "Longitude": 22.590412,
    "Latitude": 42.263447
  },
  {
    "Name": "Враца",
    "RegionCode": "VRC",
    "Longitude": 23.552881,
    "Latitude": 43.210236
  },
  {
    "Name": "Врачанци",
    "RegionCode": "Добрич",
    "Longitude": 27.782833,
    "Latitude": 43.61499
  },
  {
    "Name": "Врачеш",
    "RegionCode": "София",
    "Longitude": 23.752365,
    "Latitude": 42.892742
  },
  {
    "Name": "Врело",
    "RegionCode": "Кърджали",
    "Longitude": 25.495096,
    "Latitude": 41.520107
  },
  {
    "Name": "Вресово",
    "RegionCode": "Бургас",
    "Longitude": 27.198387,
    "Latitude": 42.812332
  },
  {
    "Name": "Връв",
    "RegionCode": "Видин",
    "Longitude": 22.73614,
    "Latitude": 44.193745
  },
  {
    "Name": "Връдловци",
    "RegionCode": "София",
    "Longitude": 22.931995,
    "Latitude": 43.03822
  },
  {
    "Name": "Всемирци",
    "RegionCode": "Пазарджик",
    "Longitude": 23.867304,
    "Latitude": 42.03057
  },
  {
    "Name": "Вукан",
    "RegionCode": "Перник",
    "Longitude": 22.610611,
    "Latitude": 42.77573
  },
  {
    "Name": "Вуково",
    "RegionCode": "Кюстендил",
    "Longitude": 22.964584,
    "Latitude": 42.19379
  },
  {
    "Name": "Въбел",
    "RegionCode": "Плевен",
    "Longitude": 24.899942,
    "Latitude": 43.652447
  },
  {
    "Name": "Въгларово",
    "RegionCode": "Хасково",
    "Longitude": 25.448065,
    "Latitude": 41.906418
  },
  {
    "Name": "Въглевци",
    "RegionCode": "Велико Търново",
    "Longitude": 25.649624,
    "Latitude": 42.908012
  },
  {
    "Name": "Въглен",
    "RegionCode": "Варна",
    "Longitude": 27.84756,
    "Latitude": 43.295242
  },
  {
    "Name": "Въглен",
    "RegionCode": "Сливен",
    "Longitude": 26.22791,
    "Latitude": 42.750694
  },
  {
    "Name": "Възел",
    "RegionCode": "Кърджали",
    "Longitude": 25.354187,
    "Latitude": 41.705956
  },
  {
    "Name": "Вълкан",
    "RegionCode": "Силистра",
    "Longitude": 26.891459,
    "Latitude": 43.83251
  },
  {
    "Name": "Вълков дол",
    "RegionCode": "Габрово",
    "Longitude": 25.402224,
    "Latitude": 42.893875
  },
  {
    "Name": "Вълкович",
    "RegionCode": "Кърджали",
    "Longitude": 25.318869,
    "Latitude": 41.521015
  },
  {
    "Name": "Вълково",
    "RegionCode": "Благоевград",
    "Longitude": 23.222004,
    "Latitude": 41.57803
  },
  {
    "Name": "Вълковци",
    "RegionCode": "Габрово",
    "Longitude": 25.551224,
    "Latitude": 42.903072
  },
  {
    "Name": "Вълкосел",
    "RegionCode": "Благоевград",
    "Longitude": 23.985357,
    "Latitude": 41.528908
  },