[
  {
    "Country": "Bulgaria",
    "Name": "Абланица",
    "Region": "Благоевград",
    "Municipality": "Хаджидимово",
    "Longitude": 23.9340763092041,
    "Latitude": 41.53778076171875
  },
  {
    "Country": "Bulgaria",
    "Name": "Абланица",
    "Region": "Ловеч",
    "Municipality": "Ловеч",
    "Longitude": 24.694068908691406,
    "Latitude": 43.0401611328125
  },
  {
    "Country": "Bulgaria",
    "Name": "Абланица",
    "Region": "Пазарджик",
    "Municipality": "Велинград",
    "Longitude": 23.857357025146484,
    "Latitude": 42.01019287109375
  },
  {
    "Country": "Bulgaria",
    "Name": "Абрит",
    "Region": "Добрич",
    "Municipality": "Крушари",
    "Longitude": 27.795772552490234,
    "Latitude": 43.907676696777344
  },
  {
    "Country": "Bulgaria",
    "Name": "Аврамово",
    "Region": "Благоевград",
    "Municipality": "Якоруда",
    "Longitude": 23.666667938232422,
    "Latitude": 42.03333282470703
  },
  {
    "Country": "Bulgaria",
    "Name": "Аврамово",
    "Region": "Кърджали",
    "Municipality": "Ардино",
    "Longitude": 25.16834259033203,
    "Latitude": 41.69818115234375
  },
  {
    "Country": "Bulgaria",
    "Name": "Аврен",
    "Region": "Варна",
    "Municipality": "Аврен",
    "Longitude": 27.66716766357422,
    "Latitude": 43.1126708984375
  },
  {
    "Country": "Bulgaria",
    "Name": "Аврен",
    "Region": "Кърджали",
    "Municipality": "Крумовград",
    "Longitude": 25.708961486816406,
    "Latitude": 41.34550857543945
  },
  {
    "Country": "Bulgaria",
    "Name": "Агатово",
    "Region": "Габрово",
    "Municipality": "Севлиево",
    "Longitude": 24.99640464782715,
    "Latitude": 43.13554382324219
  },
  {
    "Country": "Bulgaria",
    "Name": "Азманите",
    "Region": "Габрово",
    "Municipality": "Трявна",
    "Longitude": 25.4674015045166,
    "Latitude": 42.840248107910156
  },
  {
    "Country": "Bulgaria",
    "Name": "Айдемир",
    "Region": "Силистра",
    "Municipality": "Силистра",
    "Longitude": 27.167177200317383,
    "Latitude": 44.09846878051758
  },
  {
    "Country": "Bulgaria",
    "Name": "Айрово",
    "Region": "Кърджали",
    "Municipality": "Кърджали",
    "Longitude": 25.36664390563965,
    "Latitude": 41.61023712158203
  },
  {
    "Country": "Bulgaria",
    "Name": "Айтос",
    "Region": "Бургас",
    "Municipality": "Айтос",
    "Longitude": 27.25064468383789,
    "Latitude": 42.70311737060547
  },
  {
    "Country": "Bulgaria",
    "Name": "Аканджиево",
    "Region": "Пазарджик",
    "Municipality": "Белово",
    "Longitude": 24.045578002929688,
    "Latitude": 42.24885559082031
  },
  {
    "Country": "Bulgaria",
    "Name": "Акациево",
    "Region": "Видин",
    "Municipality": "Видин",
    "Longitude": 22.807157516479492,
    "Latitude": 44.01584243774414
  },
  {
    "Country": "Bulgaria",
    "Name": "Аксаково",
    "Region": "Варна",
    "Municipality": "Аксаково",
    "Longitude": 27.8173770904541,
    "Latitude": 43.259037017822266
  },
  {
    "Country": "Bulgaria",
    "Name": "Аламовци",
    "Region": "Смолян",
    "Municipality": "Златоград",
    "Longitude": 24.999448776245117,
    "Latitude": 41.392913818359375
  },
  {
    "Country": "Bulgaria",
    "Name": "Албанци",
    "Region": "Кърджали",
    "Municipality": "Джебел",
    "Longitude": 25.27138328552246,
    "Latitude": 41.4949836730957
  },
  {
    "Country": "Bulgaria",
    "Name": "Албена",
    "Region": "Добрич",
    "Municipality": "Балчик",
    "Longitude": 28.0818,
    "Latitude": 43.3664
  },
  {
    "Country": "Bulgaria",
    "Name": "Алваново",
    "Region": "Търговище",
    "Municipality": "Търговище",
    "Longitude": 26.67290496826172,
    "Latitude": 43.29449462890625
  },
  {
    "Country": "Bulgaria",
    "Name": "Алдомировци",
    "Region": "София",
    "Municipality": "Сливница",
    "Longitude": 22.985607147216797,
    "Latitude": 42.84801483154297
  },
  {
    "Country": "Bulgaria",
    "Name": "Алеко Константиново",
    "Region": "Пазарджик",
    "Municipality": "Пазарджик",
    "Longitude": 24.288808822631836,
    "Latitude": 42.14512252807617
  },
  {
    "Country": "Bulgaria",
    "Name": "Алеково",
    "Region": "Велико Търново",
    "Municipality": "Свищов",
    "Longitude": 25.42012596130371,
    "Latitude": 43.465843200683594
  },
  {
    "Country": "Bulgaria",
    "Name": "Алеково",
    "Region": "Силистра",
    "Municipality": "Алфатар",
    "Longitude": 27.343334197998047,
    "Latitude": 43.84552001953125
  },
  {
    "Country": "Bulgaria",
    "Name": "Александрия",
    "Region": "Добрич",
    "Municipality": "Крушари",
    "Longitude": 27.751176834106445,
    "Latitude": 43.88576889038086
  },
  {
    "Country": "Bulgaria",
    "Name": "Александрово",
    "Region": "Бургас",
    "Municipality": "Поморие",
    "Longitude": 27.59718132019043,
    "Latitude": 42.69514846801758
  },
  {
    "Country": "Bulgaria",
    "Name": "Александрово",
    "Region": "Велико Търново",
    "Municipality": "Свищов",
    "Longitude": 25.400602340698242,
    "Latitude": 43.449737548828125
  },
  {
    "Country": "Bulgaria",
    "Name": "Александрово",
    "Region": "Ловеч",
    "Municipality": "Ловеч",
    "Longitude": 24.940683364868164,
    "Latitude": 43.263282775878906
  },
  {
    "Country": "Bulgaria",
    "Name": "Александрово",
    "Region": "Стара Загора",
    "Municipality": "Павел баня",
    "Longitude": 25.091873168945312,
    "Latitude": 42.59440994262695
  },
  {
    "Country": "Bulgaria",
    "Name": "Александрово",
    "Region": "Търговище",
    "Municipality": "Търговище",
    "Longitude": 26.422462463378906,
    "Latitude": 43.23179244995117
  },
  {
    "Country": "Bulgaria",
    "Name": "Александрово",
    "Region": "Хасково",
    "Municipality": "Хасково",
    "Longitude": 25.72676658630371,
    "Latitude": 41.98234558105469
  },
  {
    "Country": "Bulgaria",
    "Name": "Александрово",
    "Region": "Шумен",
    "Municipality": "Смядово",
    "Longitude": 26.9727840423584,
    "Latitude": 42.98980712890625
  },
  {
    "Country": "Bulgaria",
    "Name": "Александрово",
    "Region": "Ямбол",
    "Municipality": "Стралджа",
    "Longitude": 26.886388778686523,
    "Latitude": 42.32211685180664
  },
  {
    "Country": "Bulgaria",
    "Name": "Александър Стамболийски",
    "Region": "Добрич",
    "Municipality": "Генерал Тошево",
    "Longitude": 28.358152389526367,
    "Latitude": 43.685829162597656
  },
  {
    "Country": "Bulgaria",
    "Name": "Алендарова",
    "Region": "Пазарджик",
    "Municipality": "Велинград",
    "Longitude": 23.881988525390625,
    "Latitude": 42.0201530456543
  },
  {
    "Country": "Bulgaria",
    "Name": "Алиговска",
    "Region": "Смолян",
    "Municipality": "Смолян",
    "Longitude": 24.64203643798828,
    "Latitude": 41.44913101196289
  },
  {
    "Country": "Bulgaria",
    "Name": "Алино",
    "Region": "София",
    "Municipality": "Самоков",
    "Longitude": 23.38327407836914,
    "Latitude": 42.40180206298828
  },
  {
    "Country": "Bulgaria",
    "Name": "Алтимир",
    "Region": "Враца",
    "Municipality": "Бяла Слатина",
    "Longitude": 23.800113677978516,
    "Latitude": 43.53293228149414
  },
  {
    "Country": "Bulgaria",
    "Name": "Алфатар",
    "Region": "Силистра",
    "Municipality": "Алфатар",
    "Longitude": 27.286575317382812,
    "Latitude": 43.94585037231445
  },
  {
    "Country": "Bulgaria",
    "Name": "Алцек",
    "Region": "Добрич",
    "Municipality": "Добрич-селска",
    "Longitude": 27.542783737182617,
    "Latitude": 43.775150299072266
  },
  {
    "Country": "Bulgaria",
    "Name": "Ангел войвода",
    "Region": "Хасково",
    "Municipality": "Минерални бани",
    "Longitude": 25.28571128845215,
    "Latitude": 41.828739166259766
  },
  {
    "Country": "Bulgaria",
    "Name": "Ангеларий",
    "Region": "Добрич",
    "Municipality": "Тервел",
    "Longitude": 27.5260066986084,
    "Latitude": 43.8292236328125
  },
  {
    "Country": "Bulgaria",
    "Name": "Ангелов",
    "Region": "Габрово",
    "Municipality": "Габрово",
    "Longitude": 25.367002487182617,
    "Latitude": 42.923789978027344
  },
  {
    "Country": "Bulgaria",
    "Name": "Анево",
    "Region": "Пловдив",
    "Municipality": "Сопот",
    "Longitude": 24.728221893310547,
    "Latitude": 42.65449523925781
  },
  {
    "Country": "Bulgaria",
    "Name": "Антимово",
    "Region": "Силистра",
    "Municipality": "Тутракан",
    "Longitude": 26.691783905029297,
    "Latitude": 43.984256744384766
  },
  {
    "Country": "Bulgaria",
    "Name": "Антимово",
    "Region": "Видин",
    "Municipality": "Видин",
    "Longitude": 22.94441795349121,
    "Latitude": 44.027584075927734
  },
  {
    "Country": "Bulgaria",
    "Name": "Антон",
    "Region": "София",
    "Municipality": "Антон",
    "Longitude": 24.259519577026367,
    "Latitude": 42.73529052734375
  },
  {
    "Country": "Bulgaria",
    "Name": "Антоново",
    "Region": "Търговище",
    "Municipality": "Антоново",
    "Longitude": 26.16060447692871,
    "Latitude": 43.149234771728516
  },
  {
    "Country": "Bulgaria",
    "Name": "Аплаци",
    "Region": "Велико Търново",
    "Municipality": "Елена",
    "Longitude": 25.81813621520996,
    "Latitude": 42.86361312866211
  },
  {
    "Country": "Bulgaria",
    "Name": "Априлово",
    "Region": "София",
    "Municipality": "Горна Малина",
    "Longitude": 23.684019088745117,
    "Latitude": 42.66901397705078
  },
  {
    "Country": "Bulgaria",
    "Name": "Априлово",
    "Region": "Стара Загора",
    "Municipality": "Гълъбово",
    "Longitude": 25.856733322143555,
    "Latitude": 42.194252014160156
  },
  {
    "Country": "Bulgaria",
    "Name": "Априлово",
    "Region": "Търговище",
    "Municipality": "Попово",
    "Longitude": 26.27870750427246,
    "Latitude": 43.260650634765625
  },
  {
    "Country": "Bulgaria",
    "Name": "Априлци",
    "Region": "Пазарджик",
    "Municipality": "Пазарджик",
    "Longitude": 24.291461944580078,
    "Latitude": 42.312469482421875
  },
  {
    "Country": "Bulgaria",
    "Name": "Априлци",
    "Region": "Кърджали",
    "Municipality": "Кирково",
    "Longitude": 25.37150764465332,
    "Latitude": 41.318302154541016
  },
  {
    "Country": "Bulgaria",
    "Name": "Априлци",
    "Region": "Ловеч",
    "Municipality": "Априлци",
    "Longitude": 24.916667938232422,
    "Latitude": 42.83333206176758
  },
  {
    "Country": "Bulgaria",
    "Name": "Арбанаси",
    "Region": "Велико Търново",
    "Municipality": "Велико Търново",
    "Longitude": 25.669198989868164,
    "Latitude": 43.098052978515625
  },
  {
    "Country": "Bulgaria",
    "Name": "Арда",
    "Region": "Смолян",
    "Municipality": "Смолян",
    "Longitude": 24.639690399169922,
    "Latitude": 41.462425231933594
  },
  {
    "Country": "Bulgaria",
    "Name": "Ардино",
    "Region": "Кърджали",
    "Municipality": "Ардино",
    "Longitude": 25.133682250976562,
    "Latitude": 41.58338928222656
  },
  {
    "Country": "Bulgaria",
    "Name": "Арзан",
    "Region": "Перник",
    "Municipality": "Брезник",
    "Longitude": 22.91996955871582,
    "Latitude": 42.765872955322266
  },
  {
    "Country": "Bulgaria",
    "Name": "Арковна",
    "Region": "Варна",
    "Municipality": "Дългопол",
    "Longitude": 27.19950294494629,
    "Latitude": 43.036678314208984
  },
  {
    "Country": "Bulgaria",
    "Name": "Армените",
    "Region": "Габрово",
    "Municipality": "Габрово",
    "Longitude": 25.225236892700195,
    "Latitude": 42.929527282714844
  },
  {
    "Country": "Bulgaria",
    "Name": "Армянковци",
    "Region": "Габрово",
    "Municipality": "Трявна",
    "Longitude": 25.571683883666992,
    "Latitude": 42.87095642089844
  },
  {
    "Country": "Bulgaria",
    "Name": "Арнаутито",
    "Region": "Стара Загора",
    "Municipality": "Стара Загора",
    "Longitude": 25.54051971435547,
    "Latitude": 42.303653717041016
  },
  {
    "Country": "Bulgaria",
    "Name": "Арпаджик",
    "Region": "Смолян",
    "Municipality": "Мадан",
    "Longitude": 24.94407844543457,
    "Latitude": 41.532562255859375
  },
  {
    "Country": "Bulgaria",
    "Name": "Арчар",
    "Region": "Видин",
    "Municipality": "Димово",
    "Longitude": 22.919111251831055,
    "Latitude": 43.81074142456055
  },
  {
    "Country": "Bulgaria",
    "Name": "Асен",
    "Region": "Стара Загора",
    "Municipality": "Павел баня",
    "Longitude": 25.20135498046875,
    "Latitude": 42.6514778137207
  },
  {
    "Country": "Bulgaria",
    "Name": "Асеновград",
    "Region": "Пловдив",
    "Municipality": "Асеновград",
    "Longitude": 24.87843894958496,
    "Latitude": 42.013370513916016
  },
  {
    "Country": "Bulgaria",
    "Name": "Асеновец",
    "Region": "Сливен",
    "Municipality": "Нова Загора",
    "Longitude": 25.9517765045166,
    "Latitude": 42.5278434753418
  },
  {
    "Country": "Bulgaria",
    "Name": "Асеново",
    "Region": "Велико Търново",
    "Municipality": "Стражица",
    "Longitude": 26.023372650146484,
    "Latitude": 43.27836608886719
  },
  {
    "Country": "Bulgaria",
    "Name": "Асеново",
    "Region": "Плевен",
    "Municipality": "Никопол",
    "Longitude": 24.86606788635254,
    "Latitude": 43.555171966552734
  },
  {
    "Country": "Bulgaria",
    "Name": "Асеново",
    "Region": "Ямбол",
    "Municipality": "Тунджа",
    "Longitude": 26.658784866333008,
    "Latitude": 42.3670768737793
  },
  {
    "Country": "Bulgaria",
    "Name": "Асеновци",
    "Region": "Плевен",
    "Municipality": "Левски",
    "Longitude": 25.098407745361328,
    "Latitude": 43.32664108276367
  },
  {
    "Country": "Bulgaria",
    "Name": "Аспарухово",
    "Region": "Бургас",
    "Municipality": "Карнобат",
    "Longitude": 27.11076545715332,
    "Latitude": 42.51718521118164
  },
  {
    "Country": "Bulgaria",
    "Name": "Аспарухово",
    "Region": "Варна",
    "Municipality": "Дългопол",
    "Longitude": 27.33186912536621,
    "Latitude": 42.99143981933594
  },
  {
    "Country": "Bulgaria",
    "Name": "Аспарухово",
    "Region": "Монтана",
    "Municipality": "Медковец",
    "Longitude": 23.212936401367188,
    "Latitude": 43.703739166259766
  },
  {
    "Country": "Bulgaria",
    "Name": "Аспарухово",
    "Region": "Плевен",
    "Municipality": "Левски",
    "Longitude": 25.124269485473633,
    "Latitude": 43.395503997802734
  },
  {
    "Country": "Bulgaria",
    "Name": "Атия",
    "Region": "Бургас",
    "Municipality": "Созопол",
    "Longitude": 27.58176612854004,
    "Latitude": 42.43909454345703
  },
  {
    "Country": "Bulgaria",
    "Name": "Атолово",
    "Region": "Ямбол",
    "Municipality": "Стралджа",
    "Longitude": 26.73245620727539,
    "Latitude": 42.59806823730469
  },
  {
    "Country": "Bulgaria",
    "Name": "Ауста",
    "Region": "Кърджали",
    "Municipality": "Момчилград",
    "Longitude": 25.501399993896484,
    "Latitude": 41.47834014892578
  },
  {
    "Country": "Bulgaria",
    "Name": "Ахелой",
    "Region": "Бургас",
    "Municipality": "Поморие",
    "Longitude": 27.649385452270508,
    "Latitude": 42.64601516723633
  },
  {
    "Country": "Bulgaria",
    "Name": "Ахматово",
    "Region": "Пловдив",
    "Municipality": "Садово",
    "Longitude": 25.051376342773438,
    "Latitude": 42.1107063293457
  },
  {
    "Country": "Bulgaria",
    "Name": "Ахрянско",
    "Region": "Кърджали",
    "Municipality": "Ардино",
    "Longitude": 25.108224868774414,
    "Latitude": 41.599273681640625
  },
  {
    "Country": "Bulgaria",
    "Name": "Ахтопол",
    "Region": "Бургас",
    "Municipality": "Царево",
    "Longitude": 27.94071388244629,
    "Latitude": 42.09938430786133
  },
  {
    "Country": "Bulgaria",
    "Name": "Баба Тонка",
    "Region": "Търговище",
    "Municipality": "Попово",
    "Longitude": 26.167329788208008,
    "Latitude": 43.24801254272461
  },
  {
    "Country": "Bulgaria",
    "Name": "Бабек",
    "Region": "Пловдив",
    "Municipality": "Брезово",
    "Longitude": 25.074440002441406,
    "Latitude": 42.442325592041016
  },
  {
    "Country": "Bulgaria",
    "Name": "Бабино",
    "Region": "Кюстендил",
    "Municipality": "Бобов дол",
    "Longitude": 22.964685440063477,
    "Latitude": 42.362998962402344
  },
  {
    "Country": "Bulgaria",
    "Name": "Бабинска река",
    "Region": "Кюстендил",
    "Municipality": "Бобов дол",
    "Longitude": 22.99447250366211,
    "Latitude": 42.331581115722656
  },
  {
    "Country": "Bulgaria",
    "Name": "Бабинци",
    "Region": "Ловеч",
    "Municipality": "Тетевен",
    "Longitude": 24.267324447631836,
    "Latitude": 42.95005798339844
  },
  {
    "Country": "Bulgaria",
    "Name": "Бабица",
    "Region": "Перник",
    "Municipality": "Брезник",
    "Longitude": 22.954376220703125,
    "Latitude": 42.73576736450195
  },
  {
    "Country": "Bulgaria",
    "Name": "Баблон",
    "Region": "Смолян",
    "Municipality": "Смолян",
    "Longitude": 24.696420669555664,
    "Latitude": 41.4796028137207
  },
  {
    "Country": "Bulgaria",
    "Name": "Бабово",
    "Region": "Русе",
    "Municipality": "Сливо поле",
    "Longitude": 26.304126739501953,
    "Latitude": 43.97890090942383
  },
  {
    "Country": "Bulgaria",
    "Name": "Бабук",
    "Region": "Силистра",
    "Municipality": "Силистра",
    "Longitude": 27.24715232849121,
    "Latitude": 44.01184844970703
  },
  {
    "Country": "Bulgaria",
    "Name": "Бабяк",
    "Region": "Благоевград",
    "Municipality": "Белица",
    "Longitude": 23.681528091430664,
    "Latitude": 41.95520782470703
  },
  {
    "Country": "Bulgaria",
    "Name": "Багалевци",
    "Region": "Велико Търново",
    "Municipality": "Елена",
    "Longitude": 25.812828063964844,
    "Latitude": 42.89302062988281
  },
  {
    "Country": "Bulgaria",
    "Name": "Багра",
    "Region": "Кърджали",
    "Municipality": "Кърджали",
    "Longitude": 25.321365356445312,
    "Latitude": 41.700313568115234
  },
  {
    "Country": "Bulgaria",
    "Name": "Багренци",
    "Region": "Кюстендил",
    "Municipality": "Кюстендил",
    "Longitude": 22.760133743286133,
    "Latitude": 42.27909851074219
  },
  {
    "Country": "Bulgaria",
    "Name": "Багрилци",
    "Region": "Кърджали",
    "Municipality": "Крумовград",
    "Longitude": 25.786062240600586,
    "Latitude": 41.472721099853516
  },
  {
    "Country": "Bulgaria",
    "Name": "Багрянка",
    "Region": "Кърджали",
    "Municipality": "Момчилград",
    "Longitude": 25.423446655273438,
    "Latitude": 41.50908279418945
  },
  {
    "Country": "Bulgaria",
    "Name": "Бадевци",
    "Region": "Велико Търново",
    "Municipality": "Елена",
    "Longitude": 25.750652313232422,
    "Latitude": 42.88383865356445
  },
  {
    "Country": "Bulgaria",
    "Name": "Бадино",
    "Region": "Кюстендил",
    "Municipality": "Бобошево",
    "Longitude": 23.107820510864258,
    "Latitude": 42.17839431762695
  },
  {
    "Country": "Bulgaria",
    "Name": "Баевци",
    "Region": "Велико Търново",
    "Municipality": "Елена",
    "Longitude": 25.78725242614746,
    "Latitude": 42.92268753051758
  },
  {
    "Country": "Bulgaria",
    "Name": "Баевци",
    "Region": "Габрово",
    "Municipality": "Габрово",
    "Longitude": 25.284624099731445,
    "Latitude": 42.81240463256836
  },
  {
    "Country": "Bulgaria",
    "Name": "Баждари",
    "Region": "Велико Търново",
    "Municipality": "Елена",
    "Longitude": 25.773475646972656,
    "Latitude": 42.84199523925781
  },
  {
    "Country": "Bulgaria",
    "Name": "Байкал",
    "Region": "Плевен",
    "Municipality": "Долна Митрополия",
    "Longitude": 24.427091598510742,
    "Latitude": 43.708702087402344
  },
  {
    "Country": "Bulgaria",
    "Name": "Байкалско",
    "Region": "Перник",
    "Municipality": "Радомир",
    "Longitude": 22.823932647705078,
    "Latitude": 42.4058723449707
  },
  {
    "Country": "Bulgaria",
    "Name": "Байково",
    "Region": "Шумен",
    "Municipality": "Хитрино",
    "Longitude": 26.837574005126953,
    "Latitude": 43.46016311645508
  },
  {
    "Country": "Bulgaria",
    "Name": "Байлово",
    "Region": "София",
    "Municipality": "Горна Малина",
    "Longitude": 23.820619583129883,
    "Latitude": 42.65718460083008
  },
  {
    "Country": "Bulgaria",
    "Name": "Бакалите",
    "Region": "Кърджали",
    "Municipality": "Черноочене",
    "Longitude": 25.230037689208984,
    "Latitude": 41.74050521850586
  },
  {
    "Country": "Bulgaria",
    "Name": "Бакьово",
    "Region": "София",
    "Municipality": "Своге",
    "Longitude": 23.4652099609375,
    "Latitude": 42.87771987915039
  },
  {
    "Country": "Bulgaria",
    "Name": "Балабаново",
    "Region": "Кърджали",
    "Municipality": "Момчилград",
    "Longitude": 25.38091468811035,
    "Latitude": 41.57060241699219
  },
  {
    "Country": "Bulgaria",
    "Name": "Балабанско",
    "Region": "Ловеч",
    "Municipality": "Троян",
    "Longitude": 24.65030288696289,
    "Latitude": 42.893978118896484
  },
  {
    "Country": "Bulgaria",
    "Name": "Балалея",
    "Region": "Габрово",
    "Municipality": "Дряново",
    "Longitude": 25.43113136291504,
    "Latitude": 42.993446350097656
  },
  {
    "Country": "Bulgaria",
    "Name": "Баланите",
    "Region": "Габрово",
    "Municipality": "Габрово",
    "Longitude": 25.370471954345703,
    "Latitude": 42.8319206237793
  },
  {
    "Country": "Bulgaria",
    "Name": "Баланово",
    "Region": "Кюстендил",
    "Municipality": "Дупница",
    "Longitude": 23.059289932250977,
    "Latitude": 42.250946044921875
  },
  {
    "Country": "Bulgaria",
    "Name": "Балван",
    "Region": "Велико Търново",
    "Municipality": "Велико Търново",
    "Longitude": 25.413278579711914,
    "Latitude": 43.08529281616211
  },
  {
    "Country": "Bulgaria",
    "Name": "Балванците",
    "Region": "Габрово",
    "Municipality": "Дряново",
    "Longitude": 25.449790954589844,
    "Latitude": 43.01862716674805
  },
  {
    "Country": "Bulgaria",
    "Name": "Балдево",
    "Region": "Благоевград",
    "Municipality": "Гърмен",
    "Longitude": 23.769474029541016,
    "Latitude": 41.62872314453125
  },
  {
    "Country": "Bulgaria",
    "Name": "Балей",
    "Region": "Видин",
    "Municipality": "Брегово",
    "Longitude": 22.64820671081543,
    "Latitude": 44.1894416809082
  },
  {
    "Country": "Bulgaria",
    "Name": "Балик",
    "Region": "Добрич",
    "Municipality": "Тервел",
    "Longitude": 27.584400177001953,
    "Latitude": 43.80067825317383
  },
  {
    "Country": "Bulgaria",
    "Name": "Балиновци",
    "Region": "Габрово",
    "Municipality": "Габрово",
    "Longitude": 25.380332946777344,
    "Latitude": 42.92179870605469
  },
  {
    "Country": "Bulgaria",
    "Name": "Балкан",
    "Region": "Хасково",
    "Municipality": "Стамболово",
    "Longitude": 25.572458267211914,
    "Latitude": 41.767059326171875
  },
  {
    "Country": "Bulgaria",
    "Name": "Балкан махала",
    "Region": "Пловдив",
    "Municipality": "Лъки",
    "Longitude": 24.85681915283203,
    "Latitude": 41.745819091796875
  },
  {
    "Country": "Bulgaria",
    "Name": "Балканец",
    "Region": "Ловеч",
    "Municipality": "Троян",
    "Longitude": 24.66637420654297,
    "Latitude": 42.8519172668457
  },
  {
    "Country": "Bulgaria",
    "Name": "Балкански",
    "Region": "Разград",
    "Municipality": "Разград",
    "Longitude": 26.402055740356445,
    "Latitude": 43.52401351928711
  },
  {
    "Country": "Bulgaria",
    "Name": "Балканци",
    "Region": "Велико Търново",
    "Municipality": "Стражица",
    "Longitude": 26.010902404785156,
    "Latitude": 43.17573928833008
  },
  {
    "Country": "Bulgaria",
    "Name": "Балканци",
    "Region": "Добрич",
    "Municipality": "Генерал Тошево",
    "Longitude": 28.162527084350586,
    "Latitude": 43.59852600097656
  },
  {
    "Country": "Bulgaria",
    "Name": "Балуци",
    "Region": "Велико Търново",
    "Municipality": "Елена",
    "Longitude": 25.824399948120117,
    "Latitude": 42.95087432861328
  },
  {
    "Country": "Bulgaria",
    "Name": "Балчик",
    "Region": "Добрич",
    "Municipality": "Балчик",
    "Longitude": 28.161718368530273,
    "Latitude": 43.42690658569336
  },
  {
    "Country": "Bulgaria",
    "Name": "Балша",
    "Region": "София (столица)",
    "Municipality": "Столична",
    "Longitude": 23.266483306884766,
    "Latitude": 42.848358154296875
  },
  {
    "Country": "Bulgaria",
    "Name": "Бальовци",
    "Region": "София",
    "Municipality": "Ихтиман",
    "Longitude": 23.679468154907227,
    "Latitude": 42.57106399536133
  },
  {
    "Country": "Bulgaria",
    "Name": "Балювица",
    "Region": "Монтана",
    "Municipality": "Берковица",
    "Longitude": 23.201169967651367,
    "Latitude": 43.29896545410156
  },
  {
    "Country": "Bulgaria",
    "Name": "Банари",
    "Region": "Габрово",
    "Municipality": "Дряново",
    "Longitude": 25.513988494873047,
    "Latitude": 42.938812255859375
  },
  {
    "Country": "Bulgaria",
    "Name": "Бангейци",
    "Region": "Габрово",
    "Municipality": "Трявна",
    "Longitude": 25.45282554626465,
    "Latitude": 42.84942626953125
  },
  {
    "Country": "Bulgaria",
    "Name": "Баниска",
    "Region": "Русе",
    "Municipality": "Две могили",
    "Longitude": 25.903039932250977,
    "Latitude": 43.4578857421875
  },
  {
    "Country": "Bulgaria",
    "Name": "Баните",
    "Region": "Смолян",
    "Municipality": "Баните",
    "Longitude": 25.006139755249023,
    "Latitude": 41.616729736328125
  },
  {
    "Country": "Bulgaria",
    "Name": "Баница",
    "Region": "Враца",
    "Municipality": "Враца",
    "Longitude": 23.692434310913086,
    "Latitude": 43.34342956542969
  },
  {
    "Country": "Bulgaria",
    "Name": "Баничан",
    "Region": "Благоевград",
    "Municipality": "Гоце Делчев",
    "Longitude": 23.737455368041992,
    "Latitude": 41.620697021484375
  },
  {
    "Country": "Bulgaria",
    "Name": "Банище",
    "Region": "Перник",
    "Municipality": "Брезник",
    "Longitude": 22.730121612548828,
    "Latitude": 42.717628479003906
  },
  {
    "Country": "Bulgaria",
    "Name": "Банковец",
    "Region": "Търговище",
    "Municipality": "Антоново",
    "Longitude": 26.160503387451172,
    "Latitude": 43.07659912109375
  },
  {
    "Country": "Bulgaria",
    "Name": "Банковци",
    "Region": "Габрово",
    "Municipality": "Габрово",
    "Longitude": 25.321306228637695,
    "Latitude": 42.930389404296875
  },
  {
    "Country": "Bulgaria",
    "Name": "Банкя",
    "Region": "Перник",
    "Municipality": "Трън",
    "Longitude": 22.67987823486328,
    "Latitude": 42.861934661865234
  },
  {
    "Country": "Bulgaria",
    "Name": "Банкя",
    "Region": "София (столица)",
    "Municipality": "Столична",
    "Longitude": 23.1469669342041,
    "Latitude": 42.707401275634766
  },
  {
    "Country": "Bulgaria",
    "Name": "Баново",
    "Region": "Варна",
    "Municipality": "Суворово",
    "Longitude": 27.67755889892578,
    "Latitude": 43.264495849609375
  },
  {
    "Country": "Bulgaria",
    "Name": "Банско",
    "Region": "Благоевград",
    "Municipality": "Банско",
    "Longitude": 23.485652923583984,
    "Latitude": 41.840423583984375
  },
  {
    "Country": "Bulgaria",
    "Name": "Банчовци",
    "Region": "София",
    "Municipality": "Ихтиман",
    "Longitude": 23.696212768554688,
    "Latitude": 42.52243423461914
  },
  {
    "Country": "Bulgaria",
    "Name": "Баня",
    "Region": "Благоевград",
    "Municipality": "Разлог",
    "Longitude": 23.52215576171875,
    "Latitude": 41.88043975830078
  },
  {
    "Country": "Bulgaria",
    "Name": "Баня",
    "Region": "Бургас",
    "Municipality": "Несебър",
    "Longitude": 27.818164825439453,
    "Latitude": 42.775516510009766
  },
  {
    "Country": "Bulgaria",
    "Name": "Баня",
    "Region": "Пазарджик",
    "Municipality": "Панагюрище",
    "Longitude": 24.142515182495117,
    "Latitude": 42.46387481689453
  },
  {
    "Country": "Bulgaria",
    "Name": "Баня",
    "Region": "Пловдив",
    "Municipality": "Карлово",
    "Longitude": 24.831846237182617,
    "Latitude": 42.553462982177734
  },
  {
    "Country": "Bulgaria",
    "Name": "Баня",
    "Region": "Сливен",
    "Municipality": "Нова Загора",
    "Longitude": 25.99102020263672,
    "Latitude": 42.60623550415039
  },
  {
    "Country": "Bulgaria",
    "Name": "Бараково",
    "Region": "Кюстендил",
    "Municipality": "Кочериново",
    "Longitude": 23.06004524230957,
    "Latitude": 42.062904357910156
  },
  {
    "Country": "Bulgaria",
    "Name": "Бараци",
    "Region": "Кърджали",
    "Municipality": "Крумовград",
    "Longitude": 25.645917892456055,
    "Latitude": 41.521644592285156
  },
  {
    "Country": "Bulgaria",
    "Name": "Барутин",
    "Region": "Смолян",
    "Municipality": "Доспат",
    "Longitude": 24.186893463134766,
    "Latitude": 41.60085678100586
  },
  {
    "Country": "Bulgaria",
    "Name": "Басарбово",
    "Region": "Русе",
    "Municipality": "Русе",
    "Longitude": 25.950942993164062,
    "Latitude": 43.77676773071289
  },
  {
    "Country": "Bulgaria",
    "Name": "Баскалци",
    "Region": "Благоевград",
    "Municipality": "Петрич",
    "Longitude": 23.00678253173828,
    "Latitude": 41.47488021850586
  },
  {
    "Country": "Bulgaria",
    "Name": "Бата",
    "Region": "Бургас",
    "Municipality": "Поморие",
    "Longitude": 27.49599838256836,
    "Latitude": 42.7380485534668
  },
  {
    "Country": "Bulgaria",
    "Name": "Батак",
    "Region": "Велико Търново",
    "Municipality": "Павликени",
    "Longitude": 25.337310791015625,
    "Latitude": 43.34695053100586
  },
  {
    "Country": "Bulgaria",
    "Name": "Батак",
    "Region": "Пазарджик",
    "Municipality": "Батак",
    "Longitude": 24.218969345092773,
    "Latitude": 41.944175720214844
  },
  {
    "Country": "Bulgaria",
    "Name": "Батановци",
    "Region": "Перник",
    "Municipality": "Перник",
    "Longitude": 22.955102920532227,
    "Latitude": 42.602027893066406
  },
  {
    "Country": "Bulgaria",
    "Name": "Батин",
    "Region": "Русе",
    "Municipality": "Борово",
    "Longitude": 25.679546356201172,
    "Latitude": 43.655853271484375
  },
  {
    "Country": "Bulgaria",
    "Name": "Батишница",
    "Region": "Русе",
    "Municipality": "Две могили",
    "Longitude": 25.869863510131836,
    "Latitude": 43.53357696533203
  },
  {
    "Country": "Bulgaria",
    "Name": "Батово",
    "Region": "Добрич",
    "Municipality": "Добрич-селска",
    "Longitude": 27.963027954101562,
    "Latitude": 43.411109924316406
  },
  {
    "Country": "Bulgaria",
    "Name": "Батошево",
    "Region": "Габрово",
    "Municipality": "Севлиево",
    "Longitude": 25.084699630737305,
    "Latitude": 42.90938186645508
  },
  {
    "Country": "Bulgaria",
    "Name": "Батулия",
    "Region": "София",
    "Municipality": "Своге",
    "Longitude": 23.42391586303711,
    "Latitude": 42.896602630615234
  },
  {
    "Country": "Bulgaria",
    "Name": "Батулци",
    "Region": "Ловеч",
    "Municipality": "Ябланица",
    "Longitude": 24.004878997802734,
    "Latitude": 43.087223052978516
  },
  {
    "Country": "Bulgaria",
    "Name": "Баурене",
    "Region": "Враца",
    "Municipality": "Криводол",
    "Longitude": 23.487045288085938,
    "Latitude": 43.442569732666016
  },
  {
    "Country": "Bulgaria",
    "Name": "Бахалин",
    "Region": "София",
    "Municipality": "Сливница",
    "Longitude": 22.914592742919922,
    "Latitude": 42.88521957397461
  },
  {
    "Country": "Bulgaria",
    "Name": "Баховица",
    "Region": "Ловеч",
    "Municipality": "Ловеч",
    "Longitude": 24.683042526245117,
    "Latitude": 43.188350677490234
  },
  {
    "Country": "Bulgaria",
    "Name": "Бахреци",
    "Region": "Габрово",
    "Municipality": "Трявна",
    "Longitude": 25.53449058532715,
    "Latitude": 42.8290901184082
  },
  {
    "Country": "Bulgaria",
    "Name": "Бацова махала",
    "Region": "Плевен",
    "Municipality": "Никопол",
    "Longitude": 24.99039077758789,
    "Latitude": 43.50439453125
  },
  {
    "Country": "Bulgaria",
    "Name": "Бачево",
    "Region": "Благоевград",
    "Municipality": "Разлог",
    "Longitude": 23.453044891357422,
    "Latitude": 41.92021560668945
  },
  {
    "Country": "Bulgaria",
    "Name": "Бачково",
    "Region": "Пловдив",
    "Municipality": "Асеновград",
    "Longitude": 24.8594913482666,
    "Latitude": 41.9515380859375
  },
  {
    "Country": "Bulgaria",
    "Name": "Башево",
    "Region": "Кърджали",
    "Municipality": "Ардино",
    "Longitude": 25.15175437927246,
    "Latitude": 41.66188430786133
  },
  {
    "Country": "Bulgaria",
    "Name": "Бащино",
    "Region": "Кърджали",
    "Municipality": "Кърджали",
    "Longitude": 25.563079833984375,
    "Latitude": 41.71858596801758
  },
  {
    "Country": "Bulgaria",
    "Name": "Бащино",
    "Region": "Силистра",
    "Municipality": "Главиница",
    "Longitude": 26.928756713867188,
    "Latitude": 43.94963073730469
  },
  {
    "Country": "Bulgaria",
    "Name": "Бащино",
    "Region": "Стара Загора",
    "Municipality": "Опан",
    "Longitude": 25.739919662475586,
    "Latitude": 42.10176086425781
  },
  {
    "Country": "Bulgaria",
    "Name": "Баячево",
    "Region": "Търговище",
    "Municipality": "Търговище",
    "Longitude": 26.65361785888672,
    "Latitude": 43.221168518066406
  },
  {
    "Country": "Bulgaria",
    "Name": "Бдинци",
    "Region": "Добрич",
    "Municipality": "Добрич-селска",
    "Longitude": 27.52117156982422,
    "Latitude": 43.52283477783203
  },
  {
    "Country": "Bulgaria",
    "Name": "Беброво",
    "Region": "Велико Търново",
    "Municipality": "Елена",
    "Longitude": 26.011451721191406,
    "Latitude": 42.949485778808594
  },
  {
    "Country": "Bulgaria",
    "Name": "Беглеж",
    "Region": "Плевен",
    "Municipality": "Плевен",
    "Longitude": 24.481386184692383,
    "Latitude": 43.24846649169922
  },
  {
    "Country": "Bulgaria",
    "Name": "Бегово",
    "Region": "Пловдив",
    "Municipality": "Калояново",
    "Longitude": 24.82743263244629,
    "Latitude": 42.41095733642578
  },
  {
    "Country": "Bulgaria",
    "Name": "Бегуновци",
    "Region": "Перник",
    "Municipality": "Брезник",
    "Longitude": 22.831804275512695,
    "Latitude": 42.69184112548828
  },
  {
    "Country": "Bulgaria",
    "Name": "Бегунци",
    "Region": "Пловдив",
    "Municipality": "Карлово",
    "Longitude": 24.882253646850586,
    "Latitude": 42.54837417602539
  },
  {
    "Country": "Bulgaria",
    "Name": "Беден",
    "Region": "Смолян",
    "Municipality": "Девин",
    "Longitude": 24.474414825439453,
    "Latitude": 41.71574401855469
  },
  {
    "Country": "Bulgaria",
    "Name": "Беджене",
    "Region": "Шумен",
    "Municipality": "Нови пазар",
    "Longitude": 27.267436981201172,
    "Latitude": 43.450408935546875
  },
  {
    "Country": "Bulgaria",
    "Name": "Бежаново",
    "Region": "Ловеч",
    "Municipality": "Луковит",
    "Longitude": 24.388761520385742,
    "Latitude": 43.22883605957031
  },
  {
    "Country": "Bulgaria",
    "Name": "Бежаново",
    "Region": "Добрич",
    "Municipality": "Генерал Тошево",
    "Longitude": 28.391931533813477,
    "Latitude": 43.71166229248047
  },
  {
    "Country": "Bulgaria",
    "Name": "Безводица",
    "Region": "Добрич",
    "Municipality": "Балчик",
    "Longitude": 27.972990036010742,
    "Latitude": 43.521907806396484
  },
  {
    "Country": "Bulgaria",
    "Name": "Безводно",
    "Region": "Кърджали",
    "Municipality": "Черноочене",
    "Longitude": 25.102359771728516,
    "Latitude": 41.75064468383789
  },
  {
    "Country": "Bulgaria",
    "Name": "Безден",
    "Region": "София",
    "Municipality": "Костинброд",
    "Longitude": 23.111841201782227,
    "Latitude": 42.880943298339844
  },
  {
    "Country": "Bulgaria",
    "Name": "Безденица",
    "Region": "Монтана",
    "Municipality": "Монтана",
    "Longitude": 23.19508171081543,
    "Latitude": 43.548072814941406
  },
  {
    "Country": "Bulgaria",
    "Name": "Безмер",
    "Region": "Добрич",
    "Municipality": "Тервел",
    "Longitude": 27.41459083557129,
    "Latitude": 43.798179626464844
  },
  {
    "Country": "Bulgaria",
    "Name": "Безмер",
    "Region": "Ямбол",
    "Municipality": "Тунджа",
    "Longitude": 26.39318084716797,
    "Latitude": 42.476318359375
  },
  {
    "Country": "Bulgaria",
    "Name": "Бейковци",
    "Region": "Велико Търново",
    "Municipality": "Елена",
    "Longitude": 25.848352432250977,
    "Latitude": 42.86496353149414
  },
  {
    "Country": "Bulgaria",
    "Name": "Бекриите",
    "Region": "Габрово",
    "Municipality": "Габрово",
    "Longitude": 25.298986434936523,
    "Latitude": 42.93488311767578
  },
  {
    "Country": "Bulgaria",
    "Name": "Бел камен",
    "Region": "Благоевград",
    "Municipality": "Якоруда",
    "Longitude": 23.75211524963379,
    "Latitude": 41.9962272644043
  },
  {
    "Country": "Bulgaria",
    "Name": "Бела",
    "Region": "Видин",
    "Municipality": "Димово",
    "Longitude": 22.710037231445312,
    "Latitude": 43.70927047729492
  },
  {
    "Country": "Bulgaria",
    "Name": "Бела Рада",
    "Region": "Видин",
    "Municipality": "Видин",
    "Longitude": 22.75812530517578,
    "Latitude": 43.97627258300781
  },
  {
    "Country": "Bulgaria",
    "Name": "Беланица",
    "Region": "Перник",
    "Municipality": "Радомир",
    "Longitude": 22.938018798828125,
    "Latitude": 42.48326873779297
  },
  {
    "Country": "Bulgaria",
    "Name": "Беласица",
    "Region": "Благоевград",
    "Municipality": "Петрич",
    "Longitude": 23.134550094604492,
    "Latitude": 41.366233825683594
  },
  {
    "Country": "Bulgaria",
    "Name": "Белащица",
    "Region": "Пловдив",
    "Municipality": "Родопи",
    "Longitude": 24.747983932495117,
    "Latitude": 42.06758117675781
  },
  {
    "Country": "Bulgaria",
    "Name": "Белгун",
    "Region": "Добрич",
    "Municipality": "Каварна",
    "Longitude": 28.31972885131836,
    "Latitude": 43.60157775878906
  },
  {
    "Country": "Bulgaria",
    "Name": "Белев дол",
    "Region": "Смолян",
    "Municipality": "Смолян",
    "Longitude": 24.933910369873047,
    "Latitude": 41.61140823364258
  },
  {
    "Country": "Bulgaria",
    "Name": "Белевехчево",
    "Region": "Благоевград",
    "Municipality": "Сандански",
    "Longitude": 23.308963775634766,
    "Latitude": 41.56602096557617
  },
  {
    "Country": "Bulgaria",
    "Name": "Белеврен",
    "Region": "Бургас",
    "Municipality": "Средец",
    "Longitude": 27.176881790161133,
    "Latitude": 42.09226608276367
  },
  {
    "Country": "Bulgaria",
    "Name": "Белене",
    "Region": "Плевен",
    "Municipality": "Белене",
    "Longitude": 25.124635696411133,
    "Latitude": 43.644508361816406
  },
  {
    "Country": "Bulgaria",
    "Name": "Беленци",
    "Region": "Ловеч",
    "Municipality": "Луковит",
    "Longitude": 24.062969207763672,
    "Latitude": 43.120487213134766
  },
  {
    "Country": "Bulgaria",
    "Name": "Бели брег",
    "Region": "Монтана",
    "Municipality": "Бойчиновци",
    "Longitude": 23.43717384338379,
    "Latitude": 43.5106201171875
  },
  {
    "Country": "Bulgaria",
    "Name": "Бели брод",
    "Region": "Монтана",
    "Municipality": "Бойчиновци",
    "Longitude": 23.572397232055664,
    "Latitude": 43.53807830810547
  },
  {
    "Country": "Bulgaria",
    "Name": "Бели бряг",
    "Region": "Стара Загора",
    "Municipality": "Раднево",
    "Longitude": 25.94024658203125,
    "Latitude": 42.237667083740234
  },
  {
    "Country": "Bulgaria",
    "Name": "Бели вир",
    "Region": "Кърджали",
    "Municipality": "Черноочене",
    "Longitude": 25.319189071655273,
    "Latitude": 41.734615325927734
  },
  {
    "Country": "Bulgaria",
    "Name": "Бели дол",
    "Region": "Хасково",
    "Municipality": "Ивайловград",
    "Longitude": 25.955812454223633,
    "Latitude": 41.40956497192383
  },
  {
    "Country": "Bulgaria",
    "Name": "Бели извор",
    "Region": "Враца",
    "Municipality": "Враца",
    "Longitude": 23.461545944213867,
    "Latitude": 43.27652359008789
  },
  {
    "Country": "Bulgaria",
    "Name": "Бели Искър",
    "Region": "София",
    "Municipality": "Самоков",
    "Longitude": 23.538002014160156,
    "Latitude": 42.275062561035156
  },
  {
    "Country": "Bulgaria",
    "Name": "Бели Лом",
    "Region": "Разград",
    "Municipality": "Лозница",
    "Longitude": 26.715253829956055,
    "Latitude": 43.429100036621094
  },
  {
    "Country": "Bulgaria",
    "Name": "Бели Осъм",
    "Region": "Ловеч",
    "Municipality": "Троян",
    "Longitude": 24.659263610839844,
    "Latitude": 42.86129379272461
  },
  {
    "Country": "Bulgaria",
    "Name": "Бели пласт",
    "Region": "Кърджали",
    "Municipality": "Кърджали",
    "Longitude": 25.428844451904297,
    "Latitude": 41.775760650634766
  },
  {
    "Country": "Bulgaria",
    "Name": "Белила",
    "Region": "Бургас",
    "Municipality": "Средец",
    "Longitude": 27.104263305664062,
    "Latitude": 42.331119537353516
  },
  {
    "Country": "Bulgaria",
    "Name": "Белимел",
    "Region": "Монтана",
    "Municipality": "Чипровци",
    "Longitude": 22.97415542602539,
    "Latitude": 43.4333610534668
  },
  {
    "Country": "Bulgaria",
    "Name": "Белинци",
    "Region": "Разград",
    "Municipality": "Исперих",
    "Longitude": 26.95816421508789,
    "Latitude": 43.650177001953125
  },
  {
    "Country": "Bulgaria",
    "Name": "Белица",
    "Region": "Благоевград",
    "Municipality": "Белица",
    "Longitude": 23.559221267700195,
    "Latitude": 41.950775146484375
  },
  {
    "Country": "Bulgaria",
    "Name": "Белица",
    "Region": "Габрово",
    "Municipality": "Трявна",
    "Longitude": 25.580127716064453,
    "Latitude": 42.85213088989258
  },
  {
    "Country": "Bulgaria",
    "Name": "Белица",
    "Region": "Силистра",
    "Municipality": "Тутракан",
    "Longitude": 26.66477394104004,
    "Latitude": 43.931819915771484
  },
  {
    "Country": "Bulgaria",
    "Name": "Белица",
    "Region": "Пловдив",
    "Municipality": "Лъки",
    "Longitude": 24.897375106811523,
    "Latitude": 41.82612609863281
  },
  {
    "Country": "Bulgaria",
    "Name": "Белица",
    "Region": "Хасково",
    "Municipality": "Любимец",
    "Longitude": 26.008150100708008,
    "Latitude": 41.827476501464844
  },
  {
    "Country": "Bulgaria",
    "Name": "Белица",
    "Region": "София",
    "Municipality": "Ихтиман",
    "Longitude": 23.88831901550293,
    "Latitude": 42.49721908569336
  },
  {
    "Country": "Bulgaria",
    "Name": "Белиш",
    "Region": "Ловеч",
    "Municipality": "Троян",
    "Longitude": 24.74257469177246,
    "Latitude": 42.936607360839844
  },
  {
    "Country": "Bulgaria",
    "Name": "Бело поле",
    "Region": "Благоевград",
    "Municipality": "Благоевград",
    "Longitude": 23.047311782836914,
    "Latitude": 42.03190994262695
  },
  {
    "Country": "Bulgaria",
    "Name": "Бело поле",
    "Region": "Видин",
    "Municipality": "Ружинци",
    "Longitude": 22.90340805053711,
    "Latitude": 43.65251541137695
  },
  {
    "Country": "Bulgaria",
    "Name": "Беловец",
    "Region": "Разград",
    "Municipality": "Кубрат",
    "Longitude": 26.390249252319336,
    "Latitude": 43.813880920410156
  },
  {
    "Country": "Bulgaria",
    "Name": "Беловица",
    "Region": "Пловдив",
    "Municipality": "Хисаря",
    "Longitude": 24.533781051635742,
    "Latitude": 42.42615509033203
  },
  {
    "Country": "Bulgaria",
    "Name": "Белово",
    "Region": "Пазарджик",
    "Municipality": "Белово",
    "Longitude": 24,
    "Latitude": 42.21666717529297
  },
  {
    "Country": "Bulgaria",
    "Name": "Белоградец",
    "Region": "Варна",
    "Municipality": "Ветрино",
    "Longitude": 27.329246520996094,
    "Latitude": 43.35224914550781
  },
  {
    "Country": "Bulgaria",
    "Name": "Белоградчик",
    "Region": "Видин",
    "Municipality": "Белоградчик",
    "Longitude": 22.68295669555664,
    "Latitude": 43.62783432006836
  },
  {
    "Country": "Bulgaria",
    "Name": "Белодол",
    "Region": "Бургас",
    "Municipality": "Поморие",
    "Longitude": 27.452194213867188,
    "Latitude": 42.72135543823242
  },
  {
    "Country": "Bulgaria",
    "Name": "Белозем",
    "Region": "Пловдив",
    "Municipality": "Раковски",
    "Longitude": 25.049327850341797,
    "Latitude": 42.20186233520508
  },
  {
    "Country": "Bulgaria",
    "Name": "Белокопитово",
    "Region": "Шумен",
    "Municipality": "Шумен",
    "Longitude": 26.89961051940918,
    "Latitude": 43.333717346191406
  },
  {
    "Country": "Bulgaria",
    "Name": "Беломорци",
    "Region": "Търговище",
    "Municipality": "Омуртаг",
    "Longitude": 26.43418312072754,
    "Latitude": 43.13739776611328
  },
  {
    "Country": "Bulgaria",
    "Name": "Беломъжите",
    "Region": "Габрово",
    "Municipality": "Габрово",
    "Longitude": 25.407442092895508,
    "Latitude": 42.92552185058594
  },
  {
    "Country": "Bulgaria",
    "Name": "Белополци",
    "Region": "Хасково",
    "Municipality": "Ивайловград",
    "Longitude": 25.806289672851562,
    "Latitude": 41.52207565307617
  },
  {
    "Country": "Bulgaria",
    "Name": "Белополяне",
    "Region": "Хасково",
    "Municipality": "Ивайловград",
    "Longitude": 26.150741577148438,
    "Latitude": 41.45832061767578
  },
  {
    "Country": "Bulgaria",
    "Name": "Белопопци",
    "Region": "София",
    "Municipality": "Горна Малина",
    "Longitude": 23.7680606842041,
    "Latitude": 42.66876220703125
  },
  {
    "Country": "Bulgaria",
    "Name": "Белослав",
    "Region": "Варна",
    "Municipality": "Белослав",
    "Longitude": 27.704172134399414,
    "Latitude": 43.18710708618164
  },
  {
    "Country": "Bulgaria",
    "Name": "Белотинци",
    "Region": "Монтана",
    "Municipality": "Монтана",
    "Longitude": 22.933917999267578,
    "Latitude": 43.54909896850586
  },
  {
    "Country": "Bulgaria",
    "Name": "Белцов",
    "Region": "Русе",
    "Municipality": "Ценово",
    "Longitude": 25.637357711791992,
    "Latitude": 43.5679931640625
  },
  {
    "Country": "Bulgaria",
    "Name": "Белчевци",
    "Region": "Велико Търново",
    "Municipality": "Велико Търново",
    "Longitude": 25.620506286621094,
    "Latitude": 42.88742446899414
  },
  {
    "Country": "Bulgaria",
    "Name": "Белчин",
    "Region": "София",
    "Municipality": "Самоков",
    "Longitude": 23.380430221557617,
    "Latitude": 42.36140060424805
  },
  {
    "Country": "Bulgaria",
    "Name": "Белчински бани",
    "Region": "София",
    "Municipality": "Самоков",
    "Longitude": 23.408395767211914,
    "Latitude": 42.36565399169922
  },
  {
    "Country": "Bulgaria",
    "Name": "Бельово",
    "Region": "Благоевград",
    "Municipality": "Сандански",
    "Longitude": 23.5500545501709,
    "Latitude": 41.480525970458984
  },
  {
    "Country": "Bulgaria",
    "Name": "Беляковец",
    "Region": "Велико Търново",
    "Municipality": "Велико Търново",
    "Longitude": 25.581809997558594,
    "Latitude": 43.10517120361328
  },
  {
    "Country": "Bulgaria",
    "Name": "Беляново",
    "Region": "Русе",
    "Municipality": "Ценово",
    "Longitude": 25.61778450012207,
    "Latitude": 43.61465072631836
  },
  {
    "Country": "Bulgaria",
    "Name": "Бенковски",
    "Region": "Варна",
    "Municipality": "Аврен",
    "Longitude": 27.784374237060547,
    "Latitude": 43.11773681640625
  },
  {
    "Country": "Bulgaria",
    "Name": "Бенковски",
    "Region": "Кърджали",
    "Municipality": "Кирково",
    "Longitude": 25.256420135498047,
    "Latitude": 41.38079833984375
  },
  {
    "Country": "Bulgaria",
    "Name": "Бенковски",
    "Region": "Пловдив",
    "Municipality": "Марица",
    "Longitude": 24.64945411682129,
    "Latitude": 42.20814895629883
  },
  {
    "Country": "Bulgaria",
    "Name": "Бенковски",
    "Region": "София",
    "Municipality": "Мирково",
    "Longitude": 24.010787963867188,
    "Latitude": 42.64802551269531
  },
  {
    "Country": "Bulgaria",
    "Name": "Бенковски",
    "Region": "Стара Загора",
    "Municipality": "Стара Загора",
    "Longitude": 25.603960037231445,
    "Latitude": 42.432647705078125
  },
  {
    "Country": "Bulgaria",
    "Name": "Бенковски",
    "Region": "Добрич",
    "Municipality": "Добрич-селска",
    "Longitude": 27.478408813476562,
    "Latitude": 43.59855651855469
  },
  {
    "Country": "Bulgaria",
    "Name": "Берайнци",
    "Region": "Перник",
    "Municipality": "Трън",
    "Longitude": 22.59383201599121,
    "Latitude": 42.80731201171875
  },
  {
    "Country": "Bulgaria",
    "Name": "Беренде",
    "Region": "Перник",
    "Municipality": "Земен",
    "Longitude": 22.816558837890625,
    "Latitude": 42.618370056152344
  },
  {
    "Country": "Bulgaria",
    "Name": "Беренде",
    "Region": "София",
    "Municipality": "Драгоман",
    "Longitude": 22.93736457824707,
    "Latitude": 42.99009323120117
  },
  {
    "Country": "Bulgaria",
    "Name": "Беренде извор",
    "Region": "София",
    "Municipality": "Драгоман",
    "Longitude": 22.899690628051758,
    "Latitude": 42.999935150146484
  },
  {
    "Country": "Bulgaria",
    "Name": "Бериево",
    "Region": "Габрово",
    "Municipality": "Севлиево",
    "Longitude": 24.893138885498047,
    "Latitude": 42.96779251098633
  },
  {
    "Country": "Bulgaria",
    "Name": "Берковица",
    "Region": "Монтана",
    "Municipality": "Берковица",
    "Longitude": 23.12510871887207,
    "Latitude": 43.23704528808594
  },
  {
    "Country": "Bulgaria",
    "Name": "Берковски",
    "Region": "Търговище",
    "Municipality": "Попово",
    "Longitude": 26.21319007873535,
    "Latitude": 43.239410400390625
  },
  {
    "Country": "Bulgaria",
    "Name": "Берковци",
    "Region": "Велико Търново",
    "Municipality": "Елена",
    "Longitude": 25.72823715209961,
    "Latitude": 42.88672637939453
  },
  {
    "Country": "Bulgaria",
    "Name": "Бероново",
    "Region": "Бургас",
    "Municipality": "Сунгурларе",
    "Longitude": 26.699480056762695,
    "Latitude": 42.82828903198242
  },
  {
    "Country": "Bulgaria",
    "Name": "Берсин",
    "Region": "Кюстендил",
    "Municipality": "Кюстендил",
    "Longitude": 22.771949768066406,
    "Latitude": 42.24326705932617
  },
  {
    "Country": "Bulgaria",
    "Name": "Беслен",
    "Region": "Благоевград",
    "Municipality": "Хаджидимово",
    "Longitude": 23.965007781982422,
    "Latitude": 41.47163009643555
  },
  {
    "Country": "Bulgaria",
    "Name": "Беснурка",
    "Region": "Кърджали",
    "Municipality": "Черноочене",
    "Longitude": 25.23641586303711,
    "Latitude": 41.758724212646484
  },
  {
    "Country": "Bulgaria",
    "Name": "Биволаре",
    "Region": "Плевен",
    "Municipality": "Долна Митрополия",
    "Longitude": 24.559240341186523,
    "Latitude": 43.48529052734375
  },
  {
    "Country": "Bulgaria",
    "Name": "Биволяне",
    "Region": "Кърджали",
    "Municipality": "Момчилград",
    "Longitude": 25.502498626708984,
    "Latitude": 41.588985443115234
  },
  {
    "Country": "Bulgaria",
    "Name": "Бижовци",
    "Region": "Велико Търново",
    "Municipality": "Велико Търново",
    "Longitude": 25.653053283691406,
    "Latitude": 42.82536697387695
  },
  {
    "Country": "Bulgaria",
    "Name": "Бижовци",
    "Region": "Габрово",
    "Municipality": "Трявна",
    "Longitude": 25.4766902923584,
    "Latitude": 42.89242935180664
  },
  {
    "Country": "Bulgaria",
    "Name": "Биково",
    "Region": "Сливен",
    "Municipality": "Сливен",
    "Longitude": 26.19124984741211,
    "Latitude": 42.476226806640625
  },
  {
    "Country": "Bulgaria",
    "Name": "Билинци",
    "Region": "Перник",
    "Municipality": "Брезник",
    "Longitude": 22.818323135375977,
    "Latitude": 42.79177474975586
  },
  {
    "Country": "Bulgaria",
    "Name": "Билка",
    "Region": "Бургас",
    "Municipality": "Руен",
    "Longitude": 27.232261657714844,
    "Latitude": 42.93632888793945
  },
  {
    "Country": "Bulgaria",
    "Name": "Билкини",
    "Region": "Габрово",
    "Municipality": "Дряново",
    "Longitude": 25.54964828491211,
    "Latitude": 42.94049835205078
  },
  {
    "Country": "Bulgaria",
    "Name": "Било",
    "Region": "Добрич",
    "Municipality": "Каварна",
    "Longitude": 28.402896881103516,
    "Latitude": 43.64716720581055
  },
  {
    "Country": "Bulgaria",
    "Name": "Билянска",
    "Region": "Смолян",
    "Municipality": "Смолян",
    "Longitude": 24.61750602722168,
    "Latitude": 41.45100021362305
  },
  {
    "Country": "Bulgaria",
    "Name": "Бинкос",
    "Region": "Сливен",
    "Municipality": "Сливен",
    "Longitude": 26.0970401763916,
    "Latitude": 42.6485710144043
  },
  {
    "Country": "Bulgaria",
    "Name": "Биркова",
    "Region": "Пазарджик",
    "Municipality": "Велинград",
    "Longitude": 23.815168380737305,
    "Latitude": 41.984901428222656
  },
  {
    "Country": "Bulgaria",
    "Name": "Бисер",
    "Region": "Хасково",
    "Municipality": "Харманли",
    "Longitude": 25.98824691772461,
    "Latitude": 41.867164611816406
  },
  {
    "Country": "Bulgaria",
    "Name": "Бисерци",
    "Region": "Разград",
    "Municipality": "Кубрат",
    "Longitude": 26.50524139404297,
    "Latitude": 43.88541793823242
  },
  {
    "Country": "Bulgaria",
    "Name": "Бистра",
    "Region": "Силистра",
    "Municipality": "Алфатар",
    "Longitude": 27.371736526489258,
    "Latitude": 43.840789794921875
  },
  {
    "Country": "Bulgaria",
    "Name": "Бистра",
    "Region": "Търговище",
    "Municipality": "Търговище",
    "Longitude": 26.5614013671875,
    "Latitude": 43.3298225402832
  },
  {
    "Country": "Bulgaria",
    "Name": "Бистренци",
    "Region": "Русе",
    "Municipality": "Бяла",
    "Longitude": 25.814804077148438,
    "Latitude": 43.420265197753906
  },
  {
    "Country": "Bulgaria",
    "Name": "Бистрец",
    "Region": "Бургас",
    "Municipality": "Средец",
    "Longitude": 27.015426635742188,
    "Latitude": 42.31397247314453
  },
  {
    "Country": "Bulgaria",
    "Name": "Бистрец",
    "Region": "Добрич",
    "Municipality": "Крушари",
    "Longitude": 27.729942321777344,
    "Latitude": 43.831485748291016
  },
  {
    "Country": "Bulgaria",
    "Name": "Бистрилица",
    "Region": "Монтана",
    "Municipality": "Берковица",
    "Longitude": 23.10420799255371,
    "Latitude": 43.35848617553711
  },
  {
    "Country": "Bulgaria",
    "Name": "Бистрица",
    "Region": "Благоевград",
    "Municipality": "Благоевград",
    "Longitude": 23.180133819580078,
    "Latitude": 42.054771423339844
  },
  {
    "Country": "Bulgaria",
    "Name": "Бистрица",
    "Region": "Кюстендил",
    "Municipality": "Дупница",
    "Longitude": 23.163143157958984,
    "Latitude": 42.23971176147461
  },
  {
    "Country": "Bulgaria",
    "Name": "Бистрица",
    "Region": "София (столица)",
    "Municipality": "Столична",
    "Longitude": 23.35959815979004,
    "Latitude": 42.58409881591797
  },
  {
    "Country": "Bulgaria",
    "Name": "Бистроглед",
    "Region": "Кърджали",
    "Municipality": "Ардино",
    "Longitude": 25.12899398803711,
    "Latitude": 41.566776275634766
  },
  {
    "Country": "Bulgaria",
    "Name": "Благово",
    "Region": "Монтана",
    "Municipality": "Монтана",
    "Longitude": 23.221879959106445,
    "Latitude": 43.35340118408203
  },
  {
    "Country": "Bulgaria",
    "Name": "Благово",
    "Region": "Шумен",
    "Municipality": "Шумен",
    "Longitude": 27.054697036743164,
    "Latitude": 43.21943664550781
  },
  {
    "Country": "Bulgaria",
    "Name": "Благоевград",
    "Region": "Благоевград",
    "Municipality": "Благоевград",
    "Longitude": 23.09433937072754,
    "Latitude": 42.02085876464844
  },
  {
    "Country": "Bulgaria",
    "Name": "Благоево",
    "Region": "Велико Търново",
    "Municipality": "Стражица",
    "Longitude": 25.963186264038086,
    "Latitude": 43.194679260253906
  },
  {
    "Country": "Bulgaria",
    "Name": "Благоево",
    "Region": "Разград",
    "Municipality": "Разград",
    "Longitude": 26.39856719970703,
    "Latitude": 43.45341491699219
  },
  {
    "Country": "Bulgaria",
    "Name": "Благун",
    "Region": "Кърджали",
    "Municipality": "Крумовград",
    "Longitude": 25.741626739501953,
    "Latitude": 41.37743377685547
  },
  {
    "Country": "Bulgaria",
    "Name": "Блажиево",
    "Region": "Кюстендил",
    "Municipality": "Бобошево",
    "Longitude": 23.042911529541016,
    "Latitude": 42.2014274597168
  },
  {
    "Country": "Bulgaria",
    "Name": "Блатец",
    "Region": "Кюстендил",
    "Municipality": "Кюстендил",
    "Longitude": 22.609437942504883,
    "Latitude": 42.31837844848633
  },
  {
    "Country": "Bulgaria",
    "Name": "Блатец",
    "Region": "Сливен",
    "Municipality": "Сливен",
    "Longitude": 26.5364990234375,
    "Latitude": 42.63225173950195
  },
  {
    "Country": "Bulgaria",
    "Name": "Блатешница",
    "Region": "Перник",
    "Municipality": "Земен",
    "Longitude": 22.77687644958496,
    "Latitude": 42.44841003417969
  },
  {
    "Country": "Bulgaria",
    "Name": "Блатино",
    "Region": "Кюстендил",
    "Municipality": "Дупница",
    "Longitude": 23.09832000732422,
    "Latitude": 42.301239013671875
  },
  {
    "Country": "Bulgaria",
    "Name": "Блатница",
    "Region": "Пазарджик",
    "Municipality": "Стрелча",
    "Longitude": 24.402650833129883,
    "Latitude": 42.37272262573242
  },
  {
    "Country": "Bulgaria",
    "Name": "Блато",
    "Region": "Кюстендил",
    "Municipality": "Бобов дол",
    "Longitude": 22.938488006591797,
    "Latitude": 42.23976135253906
  },
  {
    "Country": "Bulgaria",
    "Name": "Блатска",
    "Region": "Благоевград",
    "Municipality": "Хаджидимово",
    "Longitude": 23.864688873291016,
    "Latitude": 41.534202575683594
  },
  {
    "Country": "Bulgaria",
    "Name": "Бленика",
    "Region": "Кърджали",
    "Municipality": "Кърджали",
    "Longitude": 25.319372177124023,
    "Latitude": 41.671630859375
  },
  {
    "Country": "Bulgaria",
    "Name": "Близнак",
    "Region": "Бургас",
    "Municipality": "Малко Търново",
    "Longitude": 27.305044174194336,
    "Latitude": 42.15964126586914
  },
  {
    "Country": "Bulgaria",
    "Name": "Близнаци",
    "Region": "Варна",
    "Municipality": "Аврен",
    "Longitude": 27.86809539794922,
    "Latitude": 43.060935974121094
  },
  {
    "Country": "Bulgaria",
    "Name": "Близнаци",
    "Region": "Шумен",
    "Municipality": "Хитрино",
    "Longitude": 26.95274543762207,
    "Latitude": 43.47331237792969
  },
  {
    "Country": "Bulgaria",
    "Name": "Близнец",
    "Region": "Сливен",
    "Municipality": "Твърдица",
    "Longitude": 26.05168914794922,
    "Latitude": 42.63291931152344
  },
  {
    "Country": "Bulgaria",
    "Name": "Блъсково",
    "Region": "Варна",
    "Municipality": "Провадия",
    "Longitude": 27.329364776611328,
    "Latitude": 43.121490478515625
  },
  {
    "Country": "Bulgaria",
    "Name": "Блъсковци",
    "Region": "Велико Търново",
    "Municipality": "Елена",
    "Longitude": 25.854549407958984,
    "Latitude": 42.95533752441406
  },
  {
    "Country": "Bulgaria",
    "Name": "Боазът",
    "Region": "Габрово",
    "Municipality": "Севлиево",
    "Longitude": 24.961580276489258,
    "Latitude": 42.90811538696289
  },
  {
    "Country": "Bulgaria",
    "Name": "Бобевци",
    "Region": "Габрово",
    "Municipality": "Габрово",
    "Longitude": 25.299728393554688,
    "Latitude": 42.94153594970703
  },
  {
    "Country": "Bulgaria",
    "Name": "Бобешино",
    "Region": "Кюстендил",
    "Municipality": "Кюстендил",
    "Longitude": 22.4230899810791,
    "Latitude": 42.31974411010742
  },
  {
    "Country": "Bulgaria",
    "Name": "Бобов дол",
    "Region": "Кюстендил",
    "Municipality": "Бобов дол",
    "Longitude": 23.00518798828125,
    "Latitude": 42.36638641357422
  },
  {
    "Country": "Bulgaria",
    "Name": "Бобовец",
    "Region": "Добрич",
    "Municipality": "Балчик",
    "Longitude": 28.086772918701172,
    "Latitude": 43.43965530395508
  },
  {
    "Country": "Bulgaria",
    "Name": "Бобораци",
    "Region": "Перник",
    "Municipality": "Радомир",
    "Longitude": 22.96611213684082,
    "Latitude": 42.47175979614258
  },
  {
    "Country": "Bulgaria",
    "Name": "Бобошево",
    "Region": "Кюстендил",
    "Municipality": "Бобошево",
    "Longitude": 22.999500274658203,
    "Latitude": 42.15096664428711
  },
  {
    "Country": "Bulgaria",
    "Name": "Бов",
    "Region": "София",
    "Municipality": "Своге",
    "Longitude": 23.3523006439209,
    "Latitude": 43.02178192138672
  },
  {
    "Country": "Bulgaria",
    "Name": "Бов",
    "Region": "София",
    "Municipality": "Своге",
    "Longitude": 23.3523006439209,
    "Latitude": 43.02178192138672
  },
  {
    "Country": "Bulgaria",
    "Name": "Богатино",
    "Region": "Кърджали",
    "Municipality": "Ардино",
    "Longitude": 25.16699981689453,
    "Latitude": 41.516998291015625
  },
  {
    "Country": "Bulgaria",
    "Name": "Богатово",
    "Region": "Габрово",
    "Municipality": "Севлиево",
    "Longitude": 25.157854080200195,
    "Latitude": 43.03256607055664
  },
  {
    "Country": "Bulgaria",
    "Name": "Богдан",
    "Region": "Пловдив",
    "Municipality": "Карлово",
    "Longitude": 24.646862030029297,
    "Latitude": 42.64366912841797
  },
  {
    "Country": "Bulgaria",
    "Name": "Богдан",
    "Region": "Добрич",
    "Municipality": "Добрич-селска",
    "Longitude": 27.786806106567383,
    "Latitude": 43.50773239135742
  },
  {
    "Country": "Bulgaria",
    "Name": "Богданица",
    "Region": "Пловдив",
    "Municipality": "Садово",
    "Longitude": 25.025680541992188,
    "Latitude": 42.10611343383789
  },
  {
    "Country": "Bulgaria",
    "Name": "Богданлия",
    "Region": "София",
    "Municipality": "Елин Пелин",
    "Longitude": 23.687246322631836,
    "Latitude": 42.61457443237305
  },
  {
    "Country": "Bulgaria",
    "Name": "Богданов дол",
    "Region": "Перник",
    "Municipality": "Перник",
    "Longitude": 22.955303192138672,
    "Latitude": 42.6123046875
  },
  {
    "Country": "Bulgaria",
    "Name": "Богданово",
    "Region": "Бургас",
    "Municipality": "Средец",
    "Longitude": 27.26133918762207,
    "Latitude": 42.233116149902344
  },
  {
    "Country": "Bulgaria",
    "Name": "Богданово",
    "Region": "Сливен",
    "Municipality": "Нова Загора",
    "Longitude": 25.993938446044922,
    "Latitude": 42.395267486572266
  },
  {
    "Country": "Bulgaria",
    "Name": "Богдановци",
    "Region": "София",
    "Municipality": "Ихтиман",
    "Longitude": 23.76490020751953,
    "Latitude": 42.53788757324219
  },
  {
    "Country": "Bulgaria",
    "Name": "Богданско",
    "Region": "Велико Търново",
    "Municipality": "Елена",
    "Longitude": 26.03154754638672,
    "Latitude": 42.95867156982422
  },
  {
    "Country": "Bulgaria",
    "Name": "Богданци",
    "Region": "Разград",
    "Municipality": "Самуил",
    "Longitude": 26.81633186340332,
    "Latitude": 43.61147689819336
  },
  {
    "Country": "Bulgaria",
    "Name": "Богданци",
    "Region": "Силистра",
    "Municipality": "Главиница",
    "Longitude": 26.789913177490234,
    "Latitude": 43.97515106201172
  },
  {
    "Country": "Bulgaria",
    "Name": "Богданчовци",
    "Region": "Габрово",
    "Municipality": "Габрово",
    "Longitude": 25.363723754882812,
    "Latitude": 42.83879852294922
  },
  {
    "Country": "Bulgaria",
    "Name": "Богойна",
    "Region": "Перник",
    "Municipality": "Трън",
    "Longitude": 22.660545349121094,
    "Latitude": 42.87117004394531
  },
  {
    "Country": "Bulgaria",
    "Name": "Боголин",
    "Region": "Благоевград",
    "Municipality": "Сатовча",
    "Longitude": 23.957063674926758,
    "Latitude": 41.53993225097656
  },
  {
    "Country": "Bulgaria",
    "Name": "Богомил",
    "Region": "Хасково",
    "Municipality": "Харманли",
    "Longitude": 26.023542404174805,
    "Latitude": 41.989925384521484
  },
  {
    "Country": "Bulgaria",
    "Name": "Богомилово",
    "Region": "Стара Загора",
    "Municipality": "Стара Загора",
    "Longitude": 25.559261322021484,
    "Latitude": 42.386775970458984
  },
  {
    "Country": "Bulgaria",
    "Name": "Богомилци",
    "Region": "Разград",
    "Municipality": "Самуил",
    "Longitude": 26.732946395874023,
    "Latitude": 43.49468994140625
  },
  {
    "Country": "Bulgaria",
    "Name": "Богомолско",
    "Region": "Търговище",
    "Municipality": "Антоново",
    "Longitude": 26.11101531982422,
    "Latitude": 43.04460525512695
  },
  {
    "Country": "Bulgaria",
    "Name": "Богорово",
    "Region": "Силистра",
    "Municipality": "Силистра",
    "Longitude": 27.366390228271484,
    "Latitude": 44.02302551269531
  },
  {
    "Country": "Bulgaria",
    "Name": "Богорово",
    "Region": "Ямбол",
    "Municipality": "Стралджа",
    "Longitude": 26.85462188720703,
    "Latitude": 42.45121383666992
  },
  {
    "Country": "Bulgaria",
    "Name": "Богородица",
    "Region": "Благоевград",
    "Municipality": "Петрич",
    "Longitude": 23.19013023376465,
    "Latitude": 41.51112747192383
  },
  {
    "Country": "Bulgaria",
    "Name": "Богослов",
    "Region": "Кюстендил",
    "Municipality": "Кюстендил",
    "Longitude": 22.673158645629883,
    "Latitude": 42.25349426269531
  },
  {
    "Country": "Bulgaria",
    "Name": "Богутево",
    "Region": "Смолян",
    "Municipality": "Чепеларе",
    "Longitude": 24.717130661010742,
    "Latitude": 41.75881576538086
  },
  {
    "Country": "Bulgaria",
    "Name": "Богьовци",
    "Region": "София",
    "Municipality": "Костинброд",
    "Longitude": 23.13517951965332,
    "Latitude": 42.877864837646484
  },
  {
    "Country": "Bulgaria",
    "Name": "Боденец",
    "Region": "Враца",
    "Municipality": "Мездра",
    "Longitude": 23.699359893798828,
    "Latitude": 43.16007614135742
  },
  {
    "Country": "Bulgaria",
    "Name": "Бодрово",
    "Region": "Хасково",
    "Municipality": "Димитровград",
    "Longitude": 25.32367706298828,
    "Latitude": 42.02470779418945
  },
  {
    "Country": "Bulgaria",
    "Name": "Боево",
    "Region": "Смолян",
    "Municipality": "Рудозем",
    "Longitude": 24.840784072875977,
    "Latitude": 41.51988983154297
  },
  {
    "Country": "Bulgaria",
    "Name": "Боерица",
    "Region": "София",
    "Municipality": "Ихтиман",
    "Longitude": 23.719324111938477,
    "Latitude": 42.45524978637695
  },
  {
    "Country": "Bulgaria",
    "Name": "Божак",
    "Region": "Кърджали",
    "Municipality": "Кърджали",
    "Longitude": 25.286836624145508,
    "Latitude": 41.7021369934082
  },
  {
    "Country": "Bulgaria",
    "Name": "Божан",
    "Region": "Добрич",
    "Municipality": "Тервел",
    "Longitude": 27.456623077392578,
    "Latitude": 43.7598762512207
  },
  {
    "Country": "Bulgaria",
    "Name": "Божаново",
    "Region": "Добрич",
    "Municipality": "Шабла",
    "Longitude": 28.490436553955078,
    "Latitude": 43.622344970703125
  },
  {
    "Country": "Bulgaria",
    "Name": "Бождово",
    "Region": "Благоевград",
    "Municipality": "Сандански",
    "Longitude": 23.360544204711914,
    "Latitude": 41.60079574584961
  },
  {
    "Country": "Bulgaria",
    "Name": "Божевци",
    "Region": "Сливен",
    "Municipality": "Сливен",
    "Longitude": 26.134891510009766,
    "Latitude": 42.86588668823242
  },
  {
    "Country": "Bulgaria",
    "Name": "Боженица",
    "Region": "София",
    "Municipality": "Ботевград",
    "Longitude": 23.812971115112305,
    "Latitude": 43.01025390625
  },
  {
    "Country": "Bulgaria",
    "Name": "Боженците",
    "Region": "Габрово",
    "Municipality": "Габрово",
    "Longitude": 25.42460823059082,
    "Latitude": 42.87265396118164
  },
  {
    "Country": "Bulgaria",
    "Name": "Божичен",
    "Region": "Русе",
    "Municipality": "Иваново",
    "Longitude": 25.954809188842773,
    "Latitude": 43.71632385253906
  },
  {
    "Country": "Bulgaria",
    "Name": "Божурец",
    "Region": "Добрич",
    "Municipality": "Каварна",
    "Longitude": 28.295146942138672,
    "Latitude": 43.424522399902344
  },
  {
    "Country": "Bulgaria",
    "Name": "Божурица",
    "Region": "Плевен",
    "Municipality": "Долна Митрополия",
    "Longitude": 24.595937728881836,
    "Latitude": 43.50967788696289
  },
  {
    "Country": "Bulgaria",
    "Name": "Божурище",
    "Region": "София",
    "Municipality": "Божурище",
    "Longitude": 23.202003479003906,
    "Latitude": 42.76349639892578
  },
  {
    "Country": "Bulgaria",
    "Name": "Божурка",
    "Region": "Търговище",
    "Municipality": "Търговище",
    "Longitude": 26.447444915771484,
    "Latitude": 43.18381881713867
  },
  {
    "Country": "Bulgaria",
    "Name": "Божурлук",
    "Region": "Плевен",
    "Municipality": "Левски",
    "Longitude": 25.182424545288086,
    "Latitude": 43.53570556640625
  },
  {
    "Country": "Bulgaria",
    "Name": "Божурово",
    "Region": "Разград",
    "Municipality": "Кубрат",
    "Longitude": 26.435518264770508,
    "Latitude": 43.88314437866211
  },
  {
    "Country": "Bulgaria",
    "Name": "Божурово",
    "Region": "Добрич",
    "Municipality": "Добрич-селска",
    "Longitude": 27.765830993652344,
    "Latitude": 43.69880294799805
  },
  {
    "Country": "Bulgaria",
    "Name": "Божурово",
    "Region": "Шумен",
    "Municipality": "Върбица",
    "Longitude": 26.6076602935791,
    "Latitude": 42.9946174621582
  },
  {
    "Country": "Bulgaria",
    "Name": "Божурци",
    "Region": "Кърджали",
    "Municipality": "Черноочене",
    "Longitude": 25.32900619506836,
    "Latitude": 41.747711181640625
  },
  {
    "Country": "Bulgaria",
    "Name": "Бозаджии",
    "Region": "Сливен",
    "Municipality": "Сливен",
    "Longitude": 26.329206466674805,
    "Latitude": 42.47907257080078
  },
  {
    "Country": "Bulgaria",
    "Name": "Бозвелийско",
    "Region": "Варна",
    "Municipality": "Провадия",
    "Longitude": 27.4754695892334,
    "Latitude": 43.10447692871094
  },
  {
    "Country": "Bulgaria",
    "Name": "Боздуганово",
    "Region": "Стара Загора",
    "Municipality": "Раднево",
    "Longitude": 25.76081657409668,
    "Latitude": 42.33761978149414
  },
  {
    "Country": "Bulgaria",
    "Name": "Бозьова",
    "Region": "Пазарджик",
    "Municipality": "Велинград",
    "Longitude": 23.760465621948242,
    "Latitude": 41.93558120727539
  },
  {
    "Country": "Bulgaria",
    "Name": "Боил",
    "Region": "Силистра",
    "Municipality": "Дулово",
    "Longitude": 26.954431533813477,
    "Latitude": 43.807857513427734
  },
  {
    "Country": "Bulgaria",
    "Name": "Бойковец",
    "Region": "София",
    "Municipality": "Етрополе",
    "Longitude": 23.92051124572754,
    "Latitude": 42.83170700073242
  },
  {
    "Country": "Bulgaria",
    "Name": "Бойково",
    "Region": "Пловдив",
    "Municipality": "Родопи",
    "Longitude": 24.620548248291016,
    "Latitude": 42.00232696533203
  },
  {
    "Country": "Bulgaria",
    "Name": "Бойковци",
    "Region": "Велико Търново",
    "Municipality": "Елена",
    "Longitude": 26.09609031677246,
    "Latitude": 42.89292907714844
  },
  {
    "Country": "Bulgaria",
    "Name": "Бойник",
    "Region": "Кърджали",
    "Municipality": "Крумовград",
    "Longitude": 25.589555740356445,
    "Latitude": 41.603702545166016
  },
  {
    "Country": "Bulgaria",
    "Name": "Бойница",
    "Region": "Видин",
    "Municipality": "Бойница",
    "Longitude": 22.532512664794922,
    "Latitude": 43.95758056640625
  },
  {
    "Country": "Bulgaria",
    "Name": "Бойно",
    "Region": "Кърджали",
    "Municipality": "Кърджали",
    "Longitude": 25.277559280395508,
    "Latitude": 41.601680755615234
  },
  {
    "Country": "Bulgaria",
    "Name": "Бойновци",
    "Region": "Габрово",
    "Municipality": "Габрово",
    "Longitude": 25.218412399291992,
    "Latitude": 42.85541915893555
  },
  {
    "Country": "Bulgaria",
    "Name": "Бойчеви колиби",
    "Region": "Велико Търново",
    "Municipality": "Велико Търново",
    "Longitude": 25.590246200561523,
    "Latitude": 42.953460693359375
  },
  {
    "Country": "Bulgaria",
    "Name": "Бойчета",
    "Region": "Габрово",
    "Municipality": "Габрово",
    "Longitude": 25.351287841796875,
    "Latitude": 42.79782485961914
  },
  {
    "Country": "Bulgaria",
    "Name": "Бойчиновци",
    "Region": "Монтана",
    "Municipality": "Бойчиновци",
    "Longitude": 23.332698822021484,
    "Latitude": 43.471500396728516
  },
  {
    "Country": "Bulgaria",
    "Name": "Бойчовци",
    "Region": "Велико Търново",
    "Municipality": "Велико Търново",
    "Longitude": 25.640974044799805,
    "Latitude": 42.860870361328125
  },
  {
    "Country": "Bulgaria",
    "Name": "Бокиловци",
    "Region": "Монтана",
    "Municipality": "Берковица",
    "Longitude": 23.201440811157227,
    "Latitude": 43.275550842285156
  },
  {
    "Country": "Bulgaria",
    "Name": "Болтата",
    "Region": "Габрово",
    "Municipality": "Габрово",
    "Longitude": 25.338674545288086,
    "Latitude": 42.84157180786133
  },
  {
    "Country": "Bulgaria",
    "Name": "Болярино",
    "Region": "Пловдив",
    "Municipality": "Раковски",
    "Longitude": 25.048019409179688,
    "Latitude": 42.236690521240234
  },
  {
    "Country": "Bulgaria",
    "Name": "Болярово",
    "Region": "Ямбол",
    "Municipality": "Болярово",
    "Longitude": 26.807762145996094,
    "Latitude": 42.1493034362793
  },
  {
    "Country": "Bulgaria",
    "Name": "Болярски извор",
    "Region": "Хасково",
    "Municipality": "Харманли",
    "Longitude": 25.81597900390625,
    "Latitude": 41.80760192871094
  },
  {
    "Country": "Bulgaria",
    "Name": "Болярско",
    "Region": "Ямбол",
    "Municipality": "Тунджа",
    "Longitude": 26.356971740722656,
    "Latitude": 42.43101119995117
  },
  {
    "Country": "Bulgaria",
    "Name": "Болярци",
    "Region": "Варна",
    "Municipality": "Аврен",
    "Longitude": 27.79964828491211,
    "Latitude": 43.070518493652344
  },
  {
    "Country": "Bulgaria",
    "Name": "Болярци",
    "Region": "Кърджали",
    "Municipality": "Кърджали",
    "Longitude": 25.449975967407227,
    "Latitude": 41.70450973510742
  },
  {
    "Country": "Bulgaria",
    "Name": "Болярци",
    "Region": "Пловдив",
    "Municipality": "Садово",
    "Longitude": 24.956998825073242,
    "Latitude": 42.068336486816406
  },
  {
    "Country": "Bulgaria",
    "Name": "Бонево",
    "Region": "Добрич",
    "Municipality": "Тервел",
    "Longitude": 27.382051467895508,
    "Latitude": 43.728179931640625
  },
  {
    "Country": "Bulgaria",
    "Name": "Бор",
    "Region": "Пловдив",
    "Municipality": "Асеновград",
    "Longitude": 25.048803329467773,
    "Latitude": 41.8348274230957
  },
  {
    "Country": "Bulgaria",
    "Name": "Борец",
    "Region": "Пловдив",
    "Municipality": "Брезово",
    "Longitude": 24.93352699279785,
    "Latitude": 42.345672607421875
  },
  {
    "Country": "Bulgaria",
    "Name": "Борие",
    "Region": "Смолян",
    "Municipality": "Рудозем",
    "Longitude": 24.87420082092285,
    "Latitude": 41.50112533569336
  },
  {
    "Country": "Bulgaria",
    "Name": "Борика",
    "Region": "Смолян",
    "Municipality": "Мадан",
    "Longitude": 24.923091888427734,
    "Latitude": 41.566558837890625
  },
  {
    "Country": "Bulgaria",
    "Name": "Борика",
    "Region": "София",
    "Municipality": "Ихтиман",
    "Longitude": 23.661880493164062,
    "Latitude": 42.48643493652344
  },
  {
    "Country": "Bulgaria",
    "Name": "Борики",
    "Region": "Габрово",
    "Municipality": "Габрово",
    "Longitude": 25.365177154541016,
    "Latitude": 42.87393569946289
  },
  {
    "Country": "Bulgaria",
    "Name": "Бориково",
    "Region": "Смолян",
    "Municipality": "Смолян",
    "Longitude": 24.61421012878418,
    "Latitude": 41.492698669433594
  },
  {
    "Country": "Bulgaria",
    "Name": "Бориловец",
    "Region": "Видин",
    "Municipality": "Бойница",
    "Longitude": 22.497636795043945,
    "Latitude": 43.99858093261719
  },
  {
    "Country": "Bulgaria",
    "Name": "Борилово",
    "Region": "Стара Загора",
    "Municipality": "Стара Загора",
    "Longitude": 25.55278778076172,
    "Latitude": 42.479496002197266
  },
  {
    "Country": "Bulgaria",
    "Name": "Борима",
    "Region": "Ловеч",
    "Municipality": "Троян",
    "Longitude": 24.582233428955078,
    "Latitude": 42.974021911621094
  },
  {
    "Country": "Bulgaria",
    "Name": "Боримечково",
    "Region": "Пазарджик",
    "Municipality": "Лесичово",
    "Longitude": 24.124868392944336,
    "Latitude": 42.399105072021484
  },
  {
    "Country": "Bulgaria",
    "Name": "Борино",
    "Region": "Смолян",
    "Municipality": "Борино",
    "Longitude": 24.293031692504883,
    "Latitude": 41.68404769897461
  },
  {
    "Country": "Bulgaria",
    "Name": "Бориново",
    "Region": "Смолян",
    "Municipality": "Мадан",
    "Longitude": 24.94257164001465,
    "Latitude": 41.482398986816406
  },
  {
    "Country": "Bulgaria",
    "Name": "Боринци",
    "Region": "Сливен",
    "Municipality": "Котел",
    "Longitude": 26.212547302246094,
    "Latitude": 42.9348258972168
  },
  {
    "Country": "Bulgaria",
    "Name": "Борислав",
    "Region": "Плевен",
    "Municipality": "Пордим",
    "Longitude": 24.96530532836914,
    "Latitude": 43.319759368896484
  },
  {
    "Country": "Bulgaria",
    "Name": "Бориславци",
    "Region": "Хасково",
    "Municipality": "Маджарово",
    "Longitude": 25.925294876098633,
    "Latitude": 41.65991973876953
  },
  {
    "Country": "Bulgaria",
    "Name": "Борисово",
    "Region": "Русе",
    "Municipality": "Сливо поле",
    "Longitude": 26.231569290161133,
    "Latitude": 43.932373046875
  },
  {
    "Country": "Bulgaria",
    "Name": "Борисово",
    "Region": "Ямбол",
    "Municipality": "Елхово",
    "Longitude": 26.729454040527344,
    "Latitude": 42.292442321777344
  },
  {
    "Country": "Bulgaria",
    "Name": "Борнарево",
    "Region": "Перник",
    "Municipality": "Радомир",
    "Longitude": 22.93419647216797,
    "Latitude": 42.5366096496582
  },
  {
    "Country": "Bulgaria",
    "Name": "Боров дол",
    "Region": "Сливен",
    "Municipality": "Твърдица",
    "Longitude": 26.07779312133789,
    "Latitude": 42.73626708984375
  },
  {
    "Country": "Bulgaria",
    "Name": "Борован",
    "Region": "Враца",
    "Municipality": "Борован",
    "Longitude": 23.753536224365234,
    "Latitude": 43.42810821533203
  },
  {
    "Country": "Bulgaria",
    "Name": "Боровец",
    "Region": "Кюстендил",
    "Municipality": "Кочериново",
    "Longitude": 23.024776458740234,
    "Latitude": 42.104156494140625
  },
  {
    "Country": "Bulgaria",
    "Name": "Боровина",
    "Region": "Смолян",
    "Municipality": "Мадан",
    "Longitude": 24.924678802490234,
    "Latitude": 41.58524703979492
  },
  {
    "Country": "Bulgaria",
    "Name": "Боровица",
    "Region": "Видин",
    "Municipality": "Белоградчик",
    "Longitude": 22.736560821533203,
    "Latitude": 43.57845687866211
  },
  {
    "Country": "Bulgaria",
    "Name": "Боровица",
    "Region": "Кърджали",
    "Municipality": "Ардино",
    "Longitude": 25.2187442779541,
    "Latitude": 41.656314849853516
  },
  {
    "Country": "Bulgaria",
    "Name": "Боровичене",
    "Region": "Благоевград",
    "Municipality": "Петрич",
    "Longitude": 23.008682250976562,
    "Latitude": 41.41721725463867
  },
  {
    "Country": "Bulgaria",
    "Name": "Борово",
    "Region": "Благоевград",
    "Municipality": "Гоце Делчев",
    "Longitude": 23.736120223999023,
    "Latitude": 41.593017578125
  },
  {
    "Country": "Bulgaria",
    "Name": "Борово",
    "Region": "Русе",
    "Municipality": "Борово",
    "Longitude": 25.805578231811523,
    "Latitude": 43.484214782714844
  },
  {
    "Country": "Bulgaria",
    "Name": "Борово",
    "Region": "Пловдив",
    "Municipality": "Лъки",
    "Longitude": 24.87590789794922,
    "Latitude": 41.84666061401367
  },
  {
    "Country": "Bulgaria",
    "Name": "Борово",
    "Region": "Стара Загора",
    "Municipality": "Стара Загора",
    "Longitude": 25.57524871826172,
    "Latitude": 42.2527961730957
  },
  {
    "Country": "Bulgaria",
    "Name": "Боровско",
    "Region": "Кърджали",
    "Municipality": "Черноочене",
    "Longitude": 25.232372283935547,
    "Latitude": 41.733848571777344
  },
  {
    "Country": "Bulgaria",
    "Name": "Боровци",
    "Region": "Монтана",
    "Municipality": "Берковица",
    "Longitude": 23.180681228637695,
    "Latitude": 43.32379913330078
  },
  {
    "Country": "Bulgaria",
    "Name": "Борското",
    "Region": "Габрово",
    "Municipality": "Габрово",
    "Longitude": 25.168964385986328,
    "Latitude": 42.89752197265625
  },
  {
    "Country": "Bulgaria",
    "Name": "Борущица",
    "Region": "Стара Загора",
    "Municipality": "Мъглиж",
    "Longitude": 25.57649803161621,
    "Latitude": 42.73229217529297
  },
  {
    "Country": "Bulgaria",
    "Name": "Борци",
    "Region": "Шумен",
    "Municipality": "Венец",
    "Longitude": 26.891847610473633,
    "Latitude": 43.54818344116211
  },
  {
    "Country": "Bulgaria",
    "Name": "Боряна",
    "Region": "Варна",
    "Municipality": "Дългопол",
    "Longitude": 27.278146743774414,
    "Latitude": 43.05261993408203
  },
  {
    "Country": "Bulgaria",
    "Name": "Босевци",
    "Region": "Велико Търново",
    "Municipality": "Елена",
    "Longitude": 25.958576202392578,
    "Latitude": 42.973690032958984
  },
  {
    "Country": "Bulgaria",
    "Name": "Босилица",
    "Region": "Кърджали",
    "Municipality": "Черноочене",
    "Longitude": 25.232288360595703,
    "Latitude": 41.752113342285156
  },
  {
    "Country": "Bulgaria",
    "Name": "Босилково",
    "Region": "Бургас",
    "Municipality": "Сунгурларе",
    "Longitude": 27.010913848876953,
    "Latitude": 42.82195281982422
  },
  {
    "Country": "Bulgaria",
    "Name": "Босилково",
    "Region": "Смолян",
    "Municipality": "Баните",
    "Longitude": 24.945903778076172,
    "Latitude": 41.696189880371094
  },
  {
    "Country": "Bulgaria",
    "Name": "Босилковци",
    "Region": "Русе",
    "Municipality": "Бяла",
    "Longitude": 25.58852767944336,
    "Latitude": 43.47364807128906
  },
  {
    "Country": "Bulgaria",
    "Name": "Босна",
    "Region": "Силистра",
    "Municipality": "Ситово",
    "Longitude": 26.969650268554688,
    "Latitude": 43.96278762817383
  },
  {
    "Country": "Bulgaria",
    "Name": "Боснек",
    "Region": "Перник",
    "Municipality": "Перник",
    "Longitude": 23.180957794189453,
    "Latitude": 42.49440002441406
  },
  {
    "Country": "Bulgaria",
    "Name": "Бостанци",
    "Region": "Кърджали",
    "Municipality": "Черноочене",
    "Longitude": 25.378475189208984,
    "Latitude": 41.76002883911133
  },
  {
    "Country": "Bulgaria",
    "Name": "Бостина",
    "Region": "Смолян",
    "Municipality": "Смолян",
    "Longitude": 24.758634567260742,
    "Latitude": 41.60790252685547
  },
  {
    "Country": "Bulgaria",
    "Name": "Ботевград",
    "Region": "София",
    "Municipality": "Ботевград",
    "Longitude": 23.793365478515625,
    "Latitude": 42.907649993896484
  },
  {
    "Country": "Bulgaria",
    "Name": "Ботево",
    "Region": "Варна",
    "Municipality": "Аксаково",
    "Longitude": 27.720251083374023,
    "Latitude": 43.42919158935547
  },
  {
    "Country": "Bulgaria",
    "Name": "Ботево",
    "Region": "Видин",
    "Municipality": "Видин",
    "Longitude": 22.86138343811035,
    "Latitude": 43.83683395385742
  },
  {
    "Country": "Bulgaria",
    "Name": "Ботево",
    "Region": "Враца",
    "Municipality": "Хайредин",
    "Longitude": 23.746858596801758,
    "Latitude": 43.58046340942383
  },
  {
    "Country": "Bulgaria",
    "Name": "Ботево",
    "Region": "Монтана",
    "Municipality": "Вълчедръм",
    "Longitude": 23.458778381347656,
    "Latitude": 43.74835205078125
  },
  {
    "Country": "Bulgaria",
    "Name": "Ботево",
    "Region": "Ямбол",
    "Municipality": "Тунджа",
    "Longitude": 26.36182403564453,
    "Latitude": 42.356361389160156
  },
  {
    "Country": "Bulgaria",
    "Name": "Ботров",
    "Region": "Русе",
    "Municipality": "Бяла",
    "Longitude": 25.715660095214844,
    "Latitude": 43.51279067993164
  },
  {
    "Country": "Bulgaria",
    "Name": "Ботуня",
    "Region": "Враца",
    "Municipality": "Криводол",
    "Longitude": 23.359119415283203,
    "Latitude": 43.28779983520508
  },
  {
    "Country": "Bulgaria",
    "Name": "Ботурче",
    "Region": "Хасково",
    "Municipality": "Ивайловград",
    "Longitude": 25.941207885742188,
    "Latitude": 41.3807373046875
  },
  {
    "Country": "Bulgaria",
    "Name": "Бохова",
    "Region": "Перник",
    "Municipality": "Трън",
    "Longitude": 22.495277404785156,
    "Latitude": 42.76715087890625
  },
  {
    "Country": "Bulgaria",
    "Name": "Бохот",
    "Region": "Плевен",
    "Municipality": "Плевен",
    "Longitude": 24.692079544067383,
    "Latitude": 43.32128143310547
  },
  {
    "Country": "Bulgaria",
    "Name": "Бочковци",
    "Region": "Велико Търново",
    "Municipality": "Велико Търново",
    "Longitude": 25.673017501831055,
    "Latitude": 42.83464813232422
  },
  {
    "Country": "Bulgaria",
    "Name": "Бошуля",
    "Region": "Пазарджик",
    "Municipality": "Септември",
    "Longitude": 24.188318252563477,
    "Latitude": 42.24509048461914
  },
  {
    "Country": "Bulgaria",
    "Name": "Бояджик",
    "Region": "Ямбол",
    "Municipality": "Тунджа",
    "Longitude": 26.302352905273438,
    "Latitude": 42.39723205566406
  },
  {
    "Country": "Bulgaria",
    "Name": "Боян",
    "Region": "Шумен",
    "Municipality": "Венец",
    "Longitude": 26.841262817382812,
    "Latitude": 43.48091125488281
  },
  {
    "Country": "Bulgaria",
    "Name": "Боян Ботево",
    "Region": "Хасково",
    "Municipality": "Минерални бани",
    "Longitude": 25.30079460144043,
    "Latitude": 41.835174560546875
  },
  {
    "Country": "Bulgaria",
    "Name": "Бояна",
    "Region": "Варна",
    "Municipality": "Вълчи дол",
    "Longitude": 27.650177001953125,
    "Latitude": 43.43567657470703
  },
  {
    "Country": "Bulgaria",
    "Name": "Бояново",
    "Region": "Видин",
    "Municipality": "Грамада",
    "Longitude": 22.68952178955078,
    "Latitude": 43.875526428222656
  },
  {
    "Country": "Bulgaria",
    "Name": "Бояново",
    "Region": "Ямбол",
    "Municipality": "Елхово",
    "Longitude": 26.628704071044922,
    "Latitude": 42.25630187988281
  },
  {
    "Country": "Bulgaria",
    "Name": "Бояновци",
    "Region": "Велико Търново",
    "Municipality": "Велико Търново",
    "Longitude": 25.64708137512207,
    "Latitude": 42.9295768737793
  },
  {
    "Country": "Bulgaria",
    "Name": "Боянци",
    "Region": "Пловдив",
    "Municipality": "Асеновград",
    "Longitude": 24.946319580078125,
    "Latitude": 42.03988265991211
  },
  {
    "Country": "Bulgaria",
    "Name": "Брадвари",
    "Region": "Силистра",
    "Municipality": "Силистра",
    "Longitude": 27.12762451171875,
    "Latitude": 43.92912292480469
  },
  {
    "Country": "Bulgaria",
    "Name": "Бракница",
    "Region": "Търговище",
    "Municipality": "Попово",
    "Longitude": 26.120662689208984,
    "Latitude": 43.236778259277344
  },
  {
    "Country": "Bulgaria",
    "Name": "Бракьовци",
    "Region": "София",
    "Municipality": "Годеч",
    "Longitude": 23.15860939025879,
    "Latitude": 43.06037139892578
  },
  {
    "Country": "Bulgaria",
    "Name": "Браниполе",
    "Region": "Пловдив",
    "Municipality": "Родопи",
    "Longitude": 24.75682258605957,
    "Latitude": 42.08026885986328
  },
  {
    "Country": "Bulgaria",
    "Name": "Браница",
    "Region": "Хасково",
    "Municipality": "Харманли",
    "Longitude": 26.084306716918945,
    "Latitude": 42.007999420166016
  },
  {
    "Country": "Bulgaria",
    "Name": "Браничево",
    "Region": "Шумен",
    "Municipality": "Каолиново",
    "Longitude": 27.09111213684082,
    "Latitude": 43.68273162841797
  },
  {
    "Country": "Bulgaria",
    "Name": "Бранище",
    "Region": "Добрич",
    "Municipality": "Добрич-селска",
    "Longitude": 27.846080780029297,
    "Latitude": 43.5271110534668
  },
  {
    "Country": "Bulgaria",
    "Name": "Бранковци",
    "Region": "Велико Търново",
    "Municipality": "Велико Търново",
    "Longitude": 25.653636932373047,
    "Latitude": 42.94199752807617
  },
  {
    "Country": "Bulgaria",
    "Name": "Бранковци",
    "Region": "Видин",
    "Municipality": "Грамада",
    "Longitude": 22.566476821899414,
    "Latitude": 43.827789306640625
  },
  {
    "Country": "Bulgaria",
    "Name": "Братан",
    "Region": "Сливен",
    "Municipality": "Котел",
    "Longitude": 26.341598510742188,
    "Latitude": 42.98591613769531
  },
  {
    "Country": "Bulgaria",
    "Name": "Братаница",
    "Region": "Пазарджик",
    "Municipality": "Пазарджик",
    "Longitude": 24.22007179260254,
    "Latitude": 42.16582489013672
  },
  {
    "Country": "Bulgaria",
    "Name": "Братово",
    "Region": "Бургас",
    "Municipality": "Бургас",
    "Longitude": 27.304048538208008,
    "Latitude": 42.504459381103516
  },
  {
    "Country": "Bulgaria",
    "Name": "Братово",
    "Region": "Търговище",
    "Municipality": "Търговище",
    "Longitude": 26.410863876342773,
    "Latitude": 43.17943572998047
  },
  {
    "Country": "Bulgaria",
    "Name": "Братушково",
    "Region": "София",
    "Municipality": "Сливница",
    "Longitude": 22.97514533996582,
    "Latitude": 42.8299560546875
  },
  {
    "Country": "Bulgaria",
    "Name": "Братя Даскалови",
    "Region": "Стара Загора",
    "Municipality": "Братя Даскалови",
    "Longitude": 25.211462020874023,
    "Latitude": 42.29966354370117
  },
  {
    "Country": "Bulgaria",
    "Name": "Братя Кунчеви",
    "Region": "Стара Загора",
    "Municipality": "Стара Загора",
    "Longitude": 25.853866577148438,
    "Latitude": 42.493019104003906
  },
  {
    "Country": "Bulgaria",
    "Name": "Брацигово",
    "Region": "Пазарджик",
    "Municipality": "Брацигово",
    "Longitude": 24.370824813842773,
    "Latitude": 42.02494430541992
  },
  {
    "Country": "Bulgaria",
    "Name": "Брегаре",
    "Region": "Плевен",
    "Municipality": "Долна Митрополия",
    "Longitude": 24.33014488220215,
    "Latitude": 43.59456253051758
  },
  {
    "Country": "Bulgaria",
    "Name": "Брегово",
    "Region": "Видин",
    "Municipality": "Брегово",
    "Longitude": 22.642009735107422,
    "Latitude": 44.148433685302734
  },
  {
    "Country": "Bulgaria",
    "Name": "Брегово",
    "Region": "Кърджали",
    "Municipality": "Кирково",
    "Longitude": 25.348352432250977,
    "Latitude": 41.42780685424805
  },
  {
    "Country": "Bulgaria",
    "Name": "Брежана",
    "Region": "Кърджали",
    "Municipality": "Джебел",
    "Longitude": 25.215139389038086,
    "Latitude": 41.49074172973633
  },
  {
    "Country": "Bulgaria",
    "Name": "Брежани",
    "Region": "Благоевград",
    "Municipality": "Симитли",
    "Longitude": 23.18641471862793,
    "Latitude": 41.863006591796875
  },
  {
    "Country": "Bulgaria",
    "Name": "Брежниците",
    "Region": "Габрово",
    "Municipality": "Трявна",
    "Longitude": 25.5159854888916,
    "Latitude": 42.80309295654297
  },
  {
    "Country": "Bulgaria",
    "Name": "Бреза",
    "Region": "Смолян",
    "Municipality": "Рудозем",
    "Longitude": 24.869699478149414,
    "Latitude": 41.45030975341797
  },
  {
    "Country": "Bulgaria",
    "Name": "Брезе",
    "Region": "Смолян",
    "Municipality": "Девин",
    "Longitude": 24.511199951171875,
    "Latitude": 41.72113800048828
  },
  {
    "Country": "Bulgaria",
    "Name": "Брезе",
    "Region": "София",
    "Municipality": "Своге",
    "Longitude": 23.196937561035156,
    "Latitude": 43.03327178955078
  },
  {
    "Country": "Bulgaria",
    "Name": "Брезен",
    "Region": "Кърджали",
    "Municipality": "Ардино",
    "Longitude": 25.22532081604004,
    "Latitude": 41.62811279296875
  },
  {
    "Country": "Bulgaria",
    "Name": "Брезник",
    "Region": "Перник",
    "Municipality": "Брезник",
    "Longitude": 22.908079147338867,
    "Latitude": 42.74126052856445
  },
  {
    "Country": "Bulgaria",
    "Name": "Брезница",
    "Region": "Благоевград",
    "Municipality": "Гоце Делчев",
    "Longitude": 23.66183090209961,
    "Latitude": 41.671363830566406
  },
  {
    "Country": "Bulgaria",
    "Name": "Брезнишки извор",
    "Region": "Перник",
    "Municipality": "Брезник",
    "Longitude": 22.809009552001953,
    "Latitude": 42.7271728515625
  },
  {
    "Country": "Bulgaria",
    "Name": "Брезовдол",
    "Region": "София",
    "Municipality": "Своге",
    "Longitude": 23.48992156982422,
    "Latitude": 42.963706970214844
  },
  {
    "Country": "Bulgaria",
    "Name": "Брезово",
    "Region": "Велико Търново",
    "Municipality": "Елена",
    "Longitude": 26.012266159057617,
    "Latitude": 42.928382873535156
  },
  {
    "Country": "Bulgaria",
    "Name": "Брезово",
    "Region": "Пловдив",
    "Municipality": "Брезово",
    "Longitude": 25.07600212097168,
    "Latitude": 42.346717834472656
  },
  {
    "Country": "Bulgaria",
    "Name": "Бреница",
    "Region": "Плевен",
    "Municipality": "Кнежа",
    "Longitude": 24.129589080810547,
    "Latitude": 43.42825698852539
  },
  {
    "Country": "Bulgaria",
    "Name": "Бреница",
    "Region": "Силистра",
    "Municipality": "Тутракан",
    "Longitude": 26.615943908691406,
    "Latitude": 43.891056060791016
  },
  {
    "Country": "Bulgaria",
    "Name": "Брест",
    "Region": "Кюстендил",
    "Municipality": "Трекляно",
    "Longitude": 22.607454299926758,
    "Latitude": 42.460113525390625
  },
  {
    "Country": "Bulgaria",
    "Name": "Брест",
    "Region": "Плевен",
    "Municipality": "Гулянци",
    "Longitude": 24.591421127319336,
    "Latitude": 43.64263153076172
  },
  {
    "Country": "Bulgaria",
    "Name": "Брестак",
    "Region": "Варна",
    "Municipality": "Вълчи дол",
    "Longitude": 27.53898048400879,
    "Latitude": 43.459930419921875
  },
  {
    "Country": "Bulgaria",
    "Name": "Брестака",
    "Region": "София",
    "Municipality": "Мирково",
    "Longitude": 23.919567108154297,
    "Latitude": 42.60619354248047
  },
  {
    "Country": "Bulgaria",
    "Name": "Бресте",
    "Region": "Плевен",
    "Municipality": "Червен бряг",
    "Longitude": 23.999677658081055,
    "Latitude": 43.26008987426758
  },
  {
    "Country": "Bulgaria",
    "Name": "Брестник",
    "Region": "Пловдив",
    "Municipality": "Родопи",
    "Longitude": 24.767702102661133,
    "Latitude": 42.05626678466797
  },
  {
    "Country": "Bulgaria",
    "Name": "Брестница",
    "Region": "Ловеч",
    "Municipality": "Ябланица",
    "Longitude": 24.19534683227539,
    "Latitude": 43.07011413574219
  },
  {
    "Country": "Bulgaria",
    "Name": "Брестница",
    "Region": "Добрич",
    "Municipality": "Тервел",
    "Longitude": 27.575462341308594,
    "Latitude": 43.881805419921875
  },
  {
    "Country": "Bulgaria",
    "Name": "Брестова",
    "Region": "Стара Загора",
    "Municipality": "Гурково",
    "Longitude": 25.741519927978516,
    "Latitude": 42.66287612915039
  },
  {
    "Country": "Bulgaria",
    "Name": "Брестовене",
    "Region": "Разград",
    "Municipality": "Завет",
    "Longitude": 26.59909439086914,
    "Latitude": 43.759212493896484
  },
  {
    "Country": "Bulgaria",
    "Name": "Брестовец",
    "Region": "Плевен",
    "Municipality": "Плевен",
    "Longitude": 24.609935760498047,
    "Latitude": 43.353759765625
  },
  {
    "Country": "Bulgaria",
    "Name": "Брестовица",
    "Region": "Пловдив",
    "Municipality": "Родопи",
    "Longitude": 24.5919132232666,
    "Latitude": 42.08361053466797
  },
  {
    "Country": "Bulgaria",
    "Name": "Брестовица",
    "Region": "Русе",
    "Municipality": "Борово",
    "Longitude": 25.758563995361328,
    "Latitude": 43.53370666503906
  },
  {
    "Country": "Bulgaria",
    "Name": "Брестово",
    "Region": "Благоевград",
    "Municipality": "Симитли",
    "Longitude": 23.003847122192383,
    "Latitude": 41.82830047607422
  },
  {
    "Country": "Bulgaria",
    "Name": "Брестово",
    "Region": "Ловеч",
    "Municipality": "Ловеч",
    "Longitude": 24.92777442932129,
    "Latitude": 43.13788986206055
  },
  {
    "Country": "Bulgaria",
    "Name": "Брод",
    "Region": "Хасково",
    "Municipality": "Димитровград",
    "Longitude": 25.676095962524414,
    "Latitude": 42.050785064697266
  },
  {
    "Country": "Bulgaria",
    "Name": "Бродилово",
    "Region": "Бургас",
    "Municipality": "Царево",
    "Longitude": 27.857635498046875,
    "Latitude": 42.087677001953125
  },
  {
    "Country": "Bulgaria",
    "Name": "Брош",
    "Region": "Кърджали",
    "Municipality": "Кърджали",
    "Longitude": 25.33051109313965,
    "Latitude": 41.64468765258789
  },
  {
    "Country": "Bulgaria",
    "Name": "Брусарци",
    "Region": "Монтана",
    "Municipality": "Брусарци",
    "Longitude": 23.06657600402832,
    "Latitude": 43.662750244140625
  },
  {
    "Country": "Bulgaria",
    "Name": "Брусевци",
    "Region": "Хасково",
    "Municipality": "Маджарово",
    "Longitude": 25.93552017211914,
    "Latitude": 41.58246612548828
  },
  {
    "Country": "Bulgaria",
    "Name": "Брусен",
    "Region": "Враца",
    "Municipality": "Мездра",
    "Longitude": 23.747697830200195,
    "Latitude": 43.1357536315918
  },
  {
    "Country": "Bulgaria",
    "Name": "Брусен",
    "Region": "София",
    "Municipality": "Етрополе",
    "Longitude": 24.108524322509766,
    "Latitude": 42.90288162231445
  },
  {
    "Country": "Bulgaria",
    "Name": "Брусино",
    "Region": "Хасково",
    "Municipality": "Ивайловград",
    "Longitude": 25.93754768371582,
    "Latitude": 41.51045608520508
  },
  {
    "Country": "Bulgaria",
    "Name": "Брусник",
    "Region": "Перник",
    "Municipality": "Брезник",
    "Longitude": 22.841632843017578,
    "Latitude": 42.836181640625
  },
  {
    "Country": "Bulgaria",
    "Name": "Брънеците",
    "Region": "Габрово",
    "Municipality": "Габрово",
    "Longitude": 25.36029052734375,
    "Latitude": 42.90166091918945
  },
  {
    "Country": "Bulgaria",
    "Name": "Бръчковци",
    "Region": "Велико Търново",
    "Municipality": "Елена",
    "Longitude": 25.805612564086914,
    "Latitude": 42.92985916137695
  },
  {
    "Country": "Bulgaria",
    "Name": "Бръшлен",
    "Region": "Русе",
    "Municipality": "Сливо поле",
    "Longitude": 26.36436653137207,
    "Latitude": 43.99507522583008
  },
  {
    "Country": "Bulgaria",
    "Name": "Бръшлян",
    "Region": "Бургас",
    "Municipality": "Малко Търново",
    "Longitude": 27.4281005859375,
    "Latitude": 42.0463752746582
  },
  {
    "Country": "Bulgaria",
    "Name": "Бръшляница",
    "Region": "Плевен",
    "Municipality": "Плевен",
    "Longitude": 24.73339080810547,
    "Latitude": 43.54467010498047
  },
  {
    "Country": "Bulgaria",
    "Name": "Бръщен",
    "Region": "Смолян",
    "Municipality": "Доспат",
    "Longitude": 24.092487335205078,
    "Latitude": 41.559059143066406
  },
  {
    "Country": "Bulgaria",
    "Name": "Бряговец",
    "Region": "Кърджали",
    "Municipality": "Крумовград",
    "Longitude": 25.789886474609375,
    "Latitude": 41.64637756347656
  },
  {
    "Country": "Bulgaria",
    "Name": "Бряговица",
    "Region": "Велико Търново",
    "Municipality": "Стражица",
    "Longitude": 25.88895034790039,
    "Latitude": 43.195030212402344
  },
  {
    "Country": "Bulgaria",
    "Name": "Брягово",
    "Region": "Пловдив",
    "Municipality": "Първомай",
    "Longitude": 25.172592163085938,
    "Latitude": 41.98530960083008
  },
  {
    "Country": "Bulgaria",
    "Name": "Брягово",
    "Region": "Хасково",
    "Municipality": "Хасково",
    "Longitude": 25.7825927734375,
    "Latitude": 41.91614532470703
  },
  {
    "Country": "Bulgaria",
    "Name": "Бряст",
    "Region": "Хасково",
    "Municipality": "Димитровград",
    "Longitude": 25.587045669555664,
    "Latitude": 42.10603332519531
  },
  {
    "Country": "Bulgaria",
    "Name": "Брястовец",
    "Region": "Бургас",
    "Municipality": "Бургас",
    "Longitude": 27.465152740478516,
    "Latitude": 42.67340087890625
  },